name_building,floors,status,year,address,address_2,link_2,height,link,h1,h2,h3,type_concat,residential,office,hotel,other,type_simplified,address_adj,lat,long
Mirante do Vale,45,built,1960,"Avenida Prestes Maia, 241",Sao Paulo SP Brazil,http://www.mirantedovale.com.br/,558,https://skyscraperpage.com/cities?buildingID=1537,558,NA,NA,"c(""Building Uses"", ""- office"", ""- observation"", ""- restaurant"", ""- retail"", ""Structural Types"", ""- highrise"", ""- landing pad"", ""Architectural Style"", ""- international"", ""- modern"", ""Materials"", ""- glass"", ""- concrete, reinforced"", ""- concrete"")",0,1,0,0,Office,"Avenida Prestes Maia, 241",-23.5423,-46.635118
Edificio Italia,46,built,1965,Av. Ipiranga 344 República BR-01046-010 Centre,Sao Paulo SP Brazil,,541,https://skyscraperpage.com/cities?buildingID=1527,541,NA,NA,"c(""Building Uses"", ""- office"", ""- communication"", ""- residential"", ""- restaurant"", ""- retail"", ""- theatre"", ""Structural Types"", ""- highrise"", ""Architectural Style"", ""- modern"", ""Materials"", ""- glass"", ""- steel"", ""- concrete, reinforced"", ""- concrete"")",1,1,0,0,Mixed Use,Av. Ipiranga 344 República ,-23.5453075,-46.6436337
CENU Torre Norte,34,built,1999,"Avenida das Nações Unidas, 12901 - Brooklin Novo",Sao Paulo SP Brazil,,518,https://skyscraperpage.com/cities?buildingID=1528,518,NA,NA,"c(""Building Uses"", ""- office"", ""- parking garage"", ""Structural Types"", ""- highrise"", ""- landing pad"", ""Architectural Style"", ""- modern"", ""Materials"", ""- glass"", ""- aluminium"", ""- granite"", ""- concrete, reinforced"")",0,1,0,0,Office,"Avenida das Nações Unidas, 12901 - Brooklin Novo",-23.6111255,-46.69656375932362
Birmann 21,26,built,1996,Av.das Nações Unidas 7221 Pinheiros BR-05425-902 Zona Oeste,Sao Paulo SP Brazil,,489,https://skyscraperpage.com/cities?buildingID=1662,489,400,NA,"c(""Building Uses"", ""- office"", ""Structural Types"", ""- highrise"", ""- landing pad"", ""Architectural Style"", ""- postmodern"", ""Materials"", ""- glass"", ""- steel"", ""- aluminium"", ""- granite"", ""- concrete, reinforced"")",0,1,0,0,Office,Av.das Nações Unidas 7221 Pinheiros ,-23.5653335,-46.7028384
e-Tower,37,built,2005,Rua Funchal 418 Vila Olímpia BR-04551-060 Zona Sul,Sao Paulo SP Brazil,,487,https://skyscraperpage.com/cities?buildingID=7888,487,NA,NA,"c(""Building Uses"", ""- office"", ""- parking garage"", ""- restaurant"", ""- fitness center"", ""Structural Types"", ""- highrise"", ""- atrium"", ""- landing pad"", ""- pole"", ""Architectural Style"", ""- postmodern"", ""Materials"", ""- glass"", ""- steel"", ""- aluminium"", ""- granite"", ""- concrete"")",0,1,0,0,Office,Rua Funchal 418 Vila Olímpia ,-23.59371985,-46.69039368087596
Itaú Fidelité Marginal Pinheiros,30,built,2002,"Avenida Doutor Chucri Zaidan, 246 - Brooklin Novo",Sao Paulo SP Brazil,,476,https://skyscraperpage.com/cities?buildingID=1556,476,NA,NA,"c(""Building Uses"", ""- office"", ""- parking garage"", ""- retail"", ""Structural Types"", ""- highrise"", ""- landing pad"", ""Architectural Style"", ""- postmodern"", ""Materials"", ""- glass"", ""- steel"", ""- granite"", ""- concrete, reinforced"")",0,1,0,0,Office,"Avenida Doutor Chucri Zaidan, 246 - Brooklin Novo",-23.6172844,-46.6974638
Emiliano Anália Franco,41,built,2013,"Rua Nagib Izar, 258 - Vila Formosa",Sao Paulo SP Brazil,https://porte.com.br/empreendi...,469,https://skyscraperpage.com/cities?buildingID=108166,469,NA,NA,"c(""Building Uses"", ""- residential"", ""- parking garage"", ""- fitness center"", ""Structural Types"", ""- highrise"")",1,0,0,0,Residential,"Rua Nagib Izar, 258 - Vila Formosa",-23.5570541,-46.5611613
Edifício do Banco do Brasil,24,built,1955,"Rua São Bento, 465",Sao Paulo SP Brazil,,469,https://skyscraperpage.com/cities?buildingID=1667,469,NA,NA,"c(""Building Uses"", ""- office"", ""Structural Types"", ""- highrise"", ""Architectural Style"", ""- modern"", ""Materials"", ""- glass"", ""- limestone"", ""- concrete, reinforced"")",0,1,0,0,Office,"Rua São Bento, 465",-23.545244,-46.6346882
Inhambú,40,built,2010,Rua Inhambú,Sao Paulo SP Brazil,,463,https://skyscraperpage.com/cities?buildingID=10983,463,NA,NA,"c(""Building Uses"", ""- residential"", ""Structural Types"", ""- highrise"", ""Architectural Style"", ""- neo-classical"", ""- postmodern"", ""Materials"", ""- glass"", ""- steel"", ""- granite"", ""- concrete, reinforced"", ""- brick"", ""- sandstone"")",1,0,0,0,Residential,Rua Inhambú,-22.938502,-43.0441993
Canário,40,built,2010,"Rua Canário, 130",Sao Paulo SP Brazil,,463,https://skyscraperpage.com/cities?buildingID=10988,463,NA,NA,"c(""Building Uses"", ""- residential"", ""Structural Types"", ""- highrise"", ""Architectural Style"", ""- neo-classical"", ""- postmodern"", ""Materials"", ""- glass"", ""- steel"", ""- granite"", ""- concrete, reinforced"", ""- brick"", ""- sandstone"")",1,0,0,0,Residential,"Rua Canário, 130",-22.9117265,-47.1182388
Eldorado Business Tower,34,built,2007,Avenida das Nações Unidas 8501,Sao Paulo SP Brazil,http://www.eldoradobusinesstow...,462,https://skyscraperpage.com/cities?buildingID=11082,462,435,23,"c(""Building Uses"", ""- office"", ""- parking garage"", ""Structural Types"", ""- highrise"", ""- landing pad"", ""Architectural Style"", ""- modern"", ""Materials"", ""- glass"", ""- aluminium"", ""- concrete, reinforced"")",0,1,0,0,Office,Avenida das Nações Unidas 8501,-23.5734931,-46.6978208
WTorre Morumbi,34,built,2015,Morumbi,Sao Paulo SP Brazil,,459,https://skyscraperpage.com/cities?buildingID=4837,459,NA,NA,"c(""Building Uses"", ""- office"", ""- parking garage"", ""Structural Types"", ""- highrise"", ""- hole"", ""Architectural Style"", ""- modern"")",0,1,0,0,Office,Morumbi,-23.5964988,-46.7178446
Plaza Centenário,34,built,1995,Avenida das Nações Unidas 12995,Sao Paulo SP Brazil,,456,https://skyscraperpage.com/cities?buildingID=1555,456,NA,NA,"c(""Building Uses"", ""- office"", ""Structural Types"", ""- highrise"", ""Architectural Style"", ""- modern"", ""Materials"", ""- glass"", ""- aluminium"", ""- concrete, reinforced"")",0,1,0,0,Office,Avenida das Nações Unidas 12995,-23.6055956,-46.69606821167951
Nova York Penthouses,32,built,2015,"Rua Nova York, 185 - Brooklin",Sao Paulo SP Brazil,http://novayorkpenthouses.com.br/,NA,https://skyscraperpage.com/cities?buildingID=33001,NA,NA,NA,"c(""Building Uses"", ""- residential"", ""- parking garage"", ""Structural Types"", ""- highrise"", ""Architectural Style"", ""- postmodern"")",1,0,0,0,Residential,"Rua Nova York, 185 - Brooklin",-23.6167493,-46.6862589
Capital Building,31,built,2011,Rua Armando Petrella 431,Sao Paulo SP Brazil,http://www.parquecidadejardim....,456,https://skyscraperpage.com/cities?buildingID=84673,456,NA,NA,"c(""Building Uses"", ""- office"", ""Structural Types"", ""- highrise"", ""- landing pad"")",0,1,0,0,Office,Rua Armando Petrella 431,-23.6022691,-46.699177
Katherine Mansfield,39,built,2013,"Rua Cândido Lacerda, 231 - Vila Formosa",Sao Paulo SP Brazil,https://porte.com.br/empreendi...,454,https://skyscraperpage.com/cities?buildingID=110839,454,NA,NA,"c(""Building Uses"", ""- residential"", ""- parking garage"", ""- fitness center"", ""Structural Types"", ""- highrise"", ""Architectural Style"", ""- postmodern"")",1,0,0,0,Residential,"Rua Cândido Lacerda, 231 - Vila Formosa",-23.5538549,-46.5648797
Torre São Paulo I,35,built,2009,Av. Presidente Juscelino Kubitschek 2041 Vila Olímpia BR-04543-906,Sao Paulo SP Brazil,http://www.wtorrejk.com.br/,447,https://skyscraperpage.com/cities?buildingID=64441,447,443,425,"c(""Building Uses"", ""- office"", ""- restaurant"", ""Structural Types"", ""- highrise"", ""- landing pad"", ""Architectural Style"", ""- international"", ""- postmodern"", ""Materials"", ""- glass"", ""- steel"", ""- aluminium"", ""- granite"", ""- concrete, reinforced"")",0,1,0,0,Office,Av. Presidente Juscelino Kubitschek 2041 Vila Olímpia ,-23.5856777,-46.671672
Continental Tower,30,built,2012,Rua Armando Petrella 431,Sao Paulo SP Brazil,http://www.parquecidadejardim....,NA,https://skyscraperpage.com/cities?buildingID=84674,NA,NA,NA,"c(""Building Uses"", ""- office"", ""Structural Types"", ""- highrise"", ""- landing pad"")",0,1,0,0,Office,Rua Armando Petrella 431,-23.6022691,-46.699177
RochaVerá Plaza Torre C,32,built,2011,"Avenida das Nações Unidas, 14171 - Santo Amaro",Sao Paulo SP Brazil,,439,https://skyscraperpage.com/cities?buildingID=27862,439,NA,NA,"c(""Building Uses"", ""- office"", ""Structural Types"", ""- highrise"", ""Architectural Style"", ""- postmodern"", ""Materials"", ""- glass"", ""- aluminium"", ""- granite"", ""- concrete, reinforced"")",0,1,0,0,Office,"Avenida das Nações Unidas, 14171 - Santo Amaro",-23.6229744,-46.7012293
Hospital Sírio-Libanês,27,built,2015,Rua Professor Daher Cutait - Bela Vista,Sao Paulo SP Brazil,,NA,https://skyscraperpage.com/cities?buildingID=108241,NA,NA,NA,"c(""Building Uses"", ""- hospital"", ""Structural Types"", ""- highrise"", ""- landing pad"", ""Architectural Style"", ""- postmodern"", ""Materials"", ""- glass"", ""- steel"", ""- concrete, reinforced"")",0,0,0,1,Other,Rua Professor Daher Cutait - Bela Vista,-23.5570747,-46.6527991
106 Seridó Torre 2,36,built,2012,"Rua Seridó, 106 - Pinheiros",Sao Paulo SP Brazil,http://construtorasaojose.com/...,439,https://skyscraperpage.com/cities?buildingID=107389,439,427,NA,"c(""Building Uses"", ""- residential"", ""- parking garage"", ""- fitness center"", ""Structural Types"", ""- highrise"")",1,0,0,0,Residential,"Rua Seridó, 106 - Pinheiros",-23.583107,-46.6897419
106 Seridó Torre 1,36,built,2012,"Rua Seridó, 106 - Pinheiros",Sao Paulo SP Brazil,http://construtorasaojose.com/...,439,https://skyscraperpage.com/cities?buildingID=107391,439,427,NA,"c(""Building Uses"", ""- residential"", ""- parking garage"", ""- fitness center"", ""Structural Types"", ""- highrise"")",1,0,0,0,Residential,"Rua Seridó, 106 - Pinheiros",-23.583107,-46.6897419
Moreira Salles,37,built,1959,Rua Direita 250,Sao Paulo SP Brazil,,436,https://skyscraperpage.com/cities?buildingID=1669,436,NA,NA,"c(""Building Uses"", ""- office"", ""Structural Types"", ""- highrise"", ""- landing pad"", ""- sign"", ""Architectural Style"", ""- modern"", ""Materials"", ""- glass"", ""- steel"", ""- concrete, reinforced"")",0,1,0,0,Office,Rua Direita 250,-23.5488348,-46.6343955
Ipiranga 165,36,built,1968,Av. Ipiranga 165 República BR-01046-919 Centre,Sao Paulo SP Brazil,,427,https://skyscraperpage.com/cities?buildingID=1720,427,NA,NA,"c(""Building Uses"", ""- hotel"", ""Structural Types"", ""- highrise"", ""Architectural Style"", ""- modern"", ""Materials"", ""- glass"", ""- concrete, reinforced"")",0,0,1,0,Hotel,Av. Ipiranga 165 República ,-23.5462713,-46.645582920109646
Grande Sao Paulo,36,built,1971,Rua Libero Badaró 425,Sao Paulo SP Brazil,,423,https://skyscraperpage.com/cities?buildingID=3866,423,NA,NA,"c(""Building Uses"", ""- office"", ""Structural Types"", ""- highrise"", ""Architectural Style"", ""- modern"", ""Materials"", ""- glass"", ""- aluminium"", ""- concrete, reinforced"")",0,1,0,0,Office,Rua Libero Badaró 425,-23.546245499999998,-46.63642711761827
Mercantil Finasa,35,built,1969,"Rua Líbero Badaró, 377",Sao Paulo SP Brazil,,423,https://skyscraperpage.com/cities?buildingID=4278,423,NA,NA,"c(""Building Uses"", ""- office"", ""Structural Types"", ""- highrise"", ""Architectural Style"", ""- international"", ""Materials"", ""- glass"", ""- aluminium"", ""- concrete, reinforced"")",0,1,0,0,Office,"Rua Líbero Badaró, 377",-23.5463954,-46.6363529
Florida Penthouses A,40,built,2008,"Rua Flórida 1963, Brooklin",Sao Paulo SP Brazil,http://www.bairronobre.com.br/...,422,https://skyscraperpage.com/cities?buildingID=95237,422,NA,NA,"c(""Building Uses"", ""- residential"", ""Structural Types"", ""- highrise"", ""Architectural Style"", ""- modern"", ""Materials"", ""- glass"", ""- concrete, reinforced"")",1,0,0,0,Residential,"Rua Flórida 1963, Brooklin",-23.6132101,-46.6862894
Birmann 32,26,built,2020,"Avenida Brigadeiro Faria Lima, 3732",Sao Paulo SP Brazil,http://www.b32.com.br/,412,https://skyscraperpage.com/cities?buildingID=4067,412,NA,NA,"c(""Building Uses"", ""- office"", ""- parking garage"", ""Structural Types"", ""- highrise"", ""- landing pad"", ""Architectural Style"", ""- modern"", ""Materials"", ""- glass"", ""- concrete"")",0,1,0,0,Office,"Avenida Brigadeiro Faria Lima, 3732",-23.5658386,-46.6944384
Ciragan,42,built,2007,Alameda Ministro Rocha Azevedo 38,Sao Paulo SP Brazil,,410,https://skyscraperpage.com/cities?buildingID=11033,410,NA,NA,"c(""Building Uses"", ""- mixed use"", ""- office"", ""- residential"", ""Structural Types"", ""- highrise"", ""Architectural Style"", ""- postmodern"", ""Materials"", ""- glass"", ""- steel"", ""- limestone"", ""- granite"", ""- concrete, reinforced"", ""- brick"", ""- sandstone"")",1,1,0,0,Mixed Use,Alameda Ministro Rocha Azevedo 38,-23.5583682,-46.656539
Matarazzo,25,built,2015,Avenida Paulista & Rua Pamplona,Sao Paulo SP Brazil,,410,https://skyscraperpage.com/cities?buildingID=17099,410,NA,NA,"c(""Building Uses"", ""- office"", ""- conference"", ""- parking garage"", ""- restaurant"", ""- retail"", ""Structural Types"", ""- highrise"", ""Architectural Style"", ""- postmodern"")",0,1,0,0,Office,Avenida Paulista & Rua Pamplona,-23.5676194,-46.6575633
World Trade Center,26,built,1994,Av Das Nacoes Unidas 12551,Sao Paulo SP Brazil,,407,https://skyscraperpage.com/cities?buildingID=3225,407,NA,NA,"c(""Building Uses"", ""- office"", ""- parking garage"", ""Structural Types"", ""- highrise"", ""- mall"", ""Architectural Style"", ""- postmodern"", ""Materials"", ""- glass"", ""- granite"", ""- concrete, reinforced"")",0,1,0,0,Office,Av Das Nacoes Unidas 12551,-23.6142492,-46.6989787
Panorama,38,built,2008,Rua Pensilvânia 114,Sao Paulo SP Brazil,,NA,https://skyscraperpage.com/cities?buildingID=6345,NA,NA,NA,"c(""Building Uses"", ""- residential"", ""Structural Types"", ""- highrise"")",1,0,0,0,Residential,Rua Pensilvânia 114,-23.6140325,-46.6836186
Mirante,38,built,2008,Rua Pensilvânia 114,Sao Paulo SP Brazil,,NA,https://skyscraperpage.com/cities?buildingID=9513,NA,NA,NA,"c(""Building Uses"", ""- residential"", ""Structural Types"", ""- highrise"")",1,0,0,0,Residential,Rua Pensilvânia 114,-23.6140325,-46.6836186
Horizonte,38,built,2008,Rua Pensilvânia 114,Sao Paulo SP Brazil,,NA,https://skyscraperpage.com/cities?buildingID=70504,NA,NA,NA,"c(""Building Uses"", ""- residential"", ""Structural Types"", ""- highrise"")",1,0,0,0,Residential,Rua Pensilvânia 114,-23.6140325,-46.6836186
Paineiras,37,built,2003,Rua Borba Gato 331,Sao Paulo SP Brazil,,NA,https://skyscraperpage.com/cities?buildingID=96211,NA,NA,NA,"c(""Building Uses"", ""- residential"", ""Structural Types"", ""- highrise"")",1,0,0,0,Residential,Rua Borba Gato 331,-23.6568592,-46.6996914
Casa Grande Bloco A,37,built,2003,Avenida Washington Luís 1576,Sao Paulo SP Brazil,,400,https://skyscraperpage.com/cities?buildingID=27854,400,NA,NA,"c(""Building Uses"", ""- residential"", ""Structural Types"", ""- highrise"", ""Architectural Style"", ""- modern"", ""Materials"", ""- glass"", ""- steel"", ""- concrete, reinforced"", ""- brick"")",1,0,0,0,Residential,Avenida Washington Luís 1576,-23.6317875,-46.6691373
Cipriani Hotel & Residences,23,built,2014,"Av. Presidente Juscelino Kubitschek 2041, Vila Olímpia BR-04543-906",Sao Paulo SP Brazil,http://www.wtorrejk.com.br/,405,https://skyscraperpage.com/cities?buildingID=73211,405,397,348,"c(""Building Uses"", ""- hotel"", ""- office"", ""- parking garage"", ""- restaurant"", ""- retail"", ""- theatre"", ""- cinema"", ""- fitness center"", ""Structural Types"", ""- highrise"", ""- mall"", ""Architectural Style"", ""- international"", ""- modern"", ""Materials"", ""- glass"", ""- stone"", ""- limestone"", ""- aluminium"", ""- marble"", ""- granite"", ""- stucco"", ""- concrete, reinforced"")",0,1,1,0,Mixed Use,"Av. Presidente Juscelino Kubitschek 2041, Vila Olímpia ",-23.5856777,-46.671672
L'Essence Jardins,35,built,2005,Rua Haddock Lobo 1725 Cerqueira César BR-01414-003 Zona Sul,Sao Paulo SP Brazil,,395,https://skyscraperpage.com/cities?buildingID=26070,395,387,NA,"c(""Building Uses"", ""- residential"", ""Structural Types"", ""- highrise"", ""Architectural Style"", ""- postmodern"", ""Materials"", ""- glass"", ""- aluminium"", ""- granite"", ""- concrete, reinforced"")",1,0,0,0,Residential,Rua Haddock Lobo 1725 Cerqueira César ,-23.5652847,-46.669271
CENU Torre Oeste,30,built,1998,Avenida das Nações Unidas 12901,Sao Paulo SP Brazil,,394,https://skyscraperpage.com/cities?buildingID=1578,394,NA,NA,"c(""Building Uses"", ""- office"", ""Structural Types"", ""- highrise"", ""Architectural Style"", ""- postmodern"", ""Materials"", ""- glass"", ""- granite"", ""- concrete, reinforced"")",0,1,0,0,Office,Avenida das Nações Unidas 12901,-23.6111255,-46.69656375932362
Florida Penthouses B,36,built,2008,Rua Flórida,Sao Paulo SP Brazil,,393,https://skyscraperpage.com/cities?buildingID=95236,393,NA,NA,"c(""Building Uses"", ""- residential"", ""Structural Types"", ""- highrise"")",1,0,0,0,Residential,Rua Flórida,-19.953823,-44.2051171
Villa Europa,27,built,2008,Rua Tucumã 691,Sao Paulo SP Brazil,,384,https://skyscraperpage.com/cities?buildingID=11085,384,NA,NA,"c(""Building Uses"", ""- residential"", ""Structural Types"", ""- highrise"", ""Architectural Style"", ""- neo-classical"", ""Materials"", ""- glass"", ""- steel"", ""- limestone"", ""- marble"", ""- stucco"", ""- concrete, reinforced"", ""- brick"")",1,0,0,0,Residential,Rua Tucumã 691,-2.6351417,-56.7392849
Park Tower,26,built,2012,Rua Armando Petrella 431,Sao Paulo SP Brazil,http://www.parquecidadejardim....,384,https://skyscraperpage.com/cities?buildingID=18666,384,NA,NA,"c(""Building Uses"", ""- office"", ""Structural Types"", ""- highrise"", ""- landing pad"")",0,1,0,0,Office,Rua Armando Petrella 431,-23.6022691,-46.699177
Particolare Torre B,36,built,2010,Rua Volta Redonda 388-394,Sao Paulo SP Brazil,,NA,https://skyscraperpage.com/cities?buildingID=95060,NA,NA,NA,"c(""Building Uses"", ""- residential"", ""Structural Types"", ""- highrise"")",1,0,0,0,Residential,Rua Volta Redonda 388-394,-22.8186695,-43.3585618
Particolare Torre A,36,built,2010,Rua Volta Redonda 388-394,Sao Paulo SP Brazil,,NA,https://skyscraperpage.com/cities?buildingID=95059,NA,NA,NA,"c(""Building Uses"", ""- residential"", ""Structural Types"", ""- highrise"")",1,0,0,0,Residential,Rua Volta Redonda 388-394,-22.8186695,-43.3585618
Edifício Andraus,31,built,1962,"Rua Pedro Américo, 32 - República",Sao Paulo SP Brazil,,377,https://skyscraperpage.com/cities?buildingID=49769,377,NA,NA,"c(""Building Uses"", ""- office"", ""Structural Types"", ""- highrise"", ""Architectural Style"", ""- modern"", ""Materials"", ""- glass"", ""- steel"", ""- concrete, reinforced"", ""- brick"")",0,1,0,0,Office,"Rua Pedro Américo, 32 - República",-23.5416721,-46.6420429
Open House Loft Panamby,28,built,2003,Rua Deputado Laércio Corte 1400,Sao Paulo SP Brazil,,377,https://skyscraperpage.com/cities?buildingID=10878,377,NA,NA,"c(""Building Uses"", ""- residential"", ""Structural Types"", ""- highrise"", ""Architectural Style"", ""- postmodern"", ""Materials"", ""- glass"", ""- steel"", ""- limestone"", ""- concrete, reinforced"")",1,0,0,0,Residential,Rua Deputado Laércio Corte 1400,-23.6282858,-46.7237969
Leeds Hall,34,built,2006,Rua Domenico Perotti 95,Sao Paulo SP Brazil,,374,https://skyscraperpage.com/cities?buildingID=84677,374,NA,NA,"c(""Building Uses"", ""- residential"", ""Structural Types"", ""- highrise"", ""Architectural Style"", ""- postmodern"")",1,0,0,0,Residential,Rua Domenico Perotti 95,-23.6281769,-46.7221686
Edificio Porto Alegre,31,built,1995,"Rua Domenico Perotti, 95",Sao Paulo SP Brazil,,374,https://skyscraperpage.com/cities?buildingID=10998,374,NA,NA,"c(""Building Uses"", ""- residential"", ""Structural Types"", ""- highrise"", ""Architectural Style"", ""- postmodern"", ""- renaissance revival"", ""Materials"", ""- glass"", ""- steel"", ""- concrete, reinforced"", ""- brick"", ""- sandstone"")",1,0,0,0,Residential,"Rua Domenico Perotti, 95",-23.6281769,-46.7221686
Instituto Tomie Ohtake & Torre Faria Lima,32,built,2004,Avenida Brigadeiro Faria Lima 201,Sao Paulo SP Brazil,http://www.institutotomieohtak...,367,https://skyscraperpage.com/cities?buildingID=58943,367,NA,NA,"c(""Building Uses"", ""- office"", ""- conference"", ""- parking garage"", ""- religious"", ""- restaurant"", ""- retail"", ""- theatre"", ""- showroom"", ""- cinema"", ""Structural Types"", ""- highrise"", ""- church"", ""- landing pad"", ""Architectural Style"", ""- modern"", ""Materials"", ""- glass"", ""- granite"", ""- concrete"")",0,1,0,0,Office,Avenida Brigadeiro Faria Lima 201,-23.5611492,-46.6947498
The Blue Loft,30,built,2004,Rua Diogo Jácome 950,Sao Paulo SP Brazil,,366,https://skyscraperpage.com/cities?buildingID=11075,366,NA,NA,"c(""Building Uses"", ""- residential"", ""Structural Types"", ""- highrise"", ""Architectural Style"", ""- postmodern"", ""Materials"", ""- glass"", ""- steel"", ""- limestone"", ""- concrete, reinforced"")",1,0,0,0,Residential,Rua Diogo Jácome 950,-23.5946126,-46.6662761
The View,34,built,2007,Avenida Nova Independência 1000,Sao Paulo SP Brazil,,NA,https://skyscraperpage.com/cities?buildingID=13258,NA,NA,NA,"c(""Building Uses"", ""- residential"", ""Structural Types"", ""- highrise"")",1,0,0,0,Residential,Avenida Nova Independência 1000,-23.6018361,-46.6897825
Ville Burle Marx,33,built,2007,Rua Diego de Castilho,Sao Paulo SP Brazil,,NA,https://skyscraperpage.com/cities?buildingID=95105,NA,NA,NA,"c(""Building Uses"", ""- residential"", ""Structural Types"", ""- highrise"")",1,0,0,0,Residential,Rua Diego de Castilho,-23.6293318,-46.7214048
Predio Martinelli,30,built,1934,"Líbero Badaró 505, Centro",Sao Paulo SP Brazil,,348,https://skyscraperpage.com/cities?buildingID=4241,348,NA,NA,"c(""Building Uses"", ""- office"", ""Structural Types"", ""- highrise"", ""Architectural Style"", ""- art deco"", ""Materials"", ""- glass"", ""- steel"", ""- granite"", ""- stucco"", ""- concrete, reinforced"", ""- brick"")",0,1,0,0,Office,"Líbero Badaró 505, Centro",-14.8464377,-40.8446185
Edifício CBI Esplanada,30,built,1948,"Praça Ramos de Azevedo, 206 - Centro",Sao Paulo SP Brazil,,399,https://skyscraperpage.com/cities?buildingID=10904,399,370,361,"c(""Building Uses"", ""- office"", ""- retail"", ""Structural Types"", ""- highrise"", ""Architectural Style"", ""- modern"", ""Materials"", ""- glass"", ""- steel"", ""- limestone"", ""- aluminium"", ""- concrete, reinforced"")",0,1,0,0,Office,"Praça Ramos de Azevedo, 206 - Centro",-22.9016453,-47.0705949
Contemporary Tower,26,built,2000,Av. Ibirapuera 2120 Indianópolis BR-04028-001 Zona Sul,Sao Paulo SP Brazil,,361,https://skyscraperpage.com/cities?buildingID=8038,361,NA,NA,"c(""Building Uses"", ""- office"", ""Structural Types"", ""- highrise"", ""Architectural Style"", ""- postmodern"", ""Materials"", ""- glass"", ""- steel"", ""- concrete, reinforced"")",0,1,0,0,Office,Av. Ibirapuera 2120 Indianópolis ,-23.596317,-46.6554343
UNIP Campus Paraíso A,25,built,2004,"Rua Vergueiro 1211, Vergueiro, Zona Sul",Sao Paulo SP Brazil,,NA,https://skyscraperpage.com/cities?buildingID=59252,NA,NA,NA,"c(""Building Uses"", ""- education"", ""- communication"", ""- university"", ""Structural Types"", ""- highrise"", ""- truss tower"", ""Architectural Style"", ""- modern"", ""Materials"", ""- glass"", ""- steel"", ""- granite"", ""- concrete, reinforced"")",0,0,0,1,Other,"Rua Vergueiro 1211, Vergueiro, Zona Sul",-22.9346827,-43.1751649
Edificio Mansao Real,32,built,1986,Rua Fradique de Melo 89,Sao Paulo SP Brazil,,358,https://skyscraperpage.com/cities?buildingID=10993,358,NA,NA,"c(""Structural Types"", ""- highrise"")",0,0,0,1,Other,Rua Fradique de Melo 89,-23.6495242,-46.6861881
Edificio Shigekiyo,31,built,1989,Rua Sergipe 304,Sao Paulo SP Brazil,,358,https://skyscraperpage.com/cities?buildingID=10989,358,NA,NA,"c(""Structural Types"", ""- highrise"")",0,0,0,1,Other,Rua Sergipe 304,-10.9102394,-37.0711884
Edificio Novo Hamburgo,31,built,1992,Rua Albuquerque 16,Sao Paulo SP Brazil,,358,https://skyscraperpage.com/cities?buildingID=11044,358,NA,NA,"c(""Structural Types"", ""- highrise"")",0,0,0,1,Other,Rua Albuquerque 16,-22.8641434,-43.4696133
Edificio Paiol,28,built,1988,Rua Ágata 7,Sao Paulo SP Brazil,,358,https://skyscraperpage.com/cities?buildingID=11038,358,NA,NA,"c(""Structural Types"", ""- highrise"")",0,0,0,1,Other,Rua Ágata 7,-24.9819797,-53.5050912
Reserva Verde,30,built,2011,"Rua Aimberê, 233",Sao Paulo SP Brazil,,356,https://skyscraperpage.com/cities?buildingID=61442,356,NA,NA,"c(""Building Uses"", ""- residential"", ""Structural Types"", ""- highrise"", ""Architectural Style"", ""- postmodern"", ""Materials"", ""- glass"", ""- steel"", ""- granite"", ""- concrete, reinforced"", ""- brick"")",1,0,0,0,Residential,"Rua Aimberê, 233",-23.533417,-46.6786612
International Plaza II,28,built,2009,Avenida Presidente Juscelino Kubitschek 1327,Sao Paulo SP Brazil,,354,https://skyscraperpage.com/cities?buildingID=84678,354,NA,NA,"c(""Building Uses"", ""- office"", ""Structural Types"", ""- highrise"", ""Architectural Style"", ""- modern"")",0,1,0,0,Office,Avenida Presidente Juscelino Kubitschek 1327,-23.5905172,-46.689192
Edificio Inácio Monteiro,31,built,1983,Rua Sta. Cruz 1058,Sao Paulo SP Brazil,,354,https://skyscraperpage.com/cities?buildingID=11002,354,NA,NA,"c(""Structural Types"", ""- highrise"")",0,0,0,1,Other,Rua Sta. Cruz 1058,-21.1201584,-42.9448204
Edificio Generali,31,built,1950,Rua Libero Badaró 188,Sao Paulo SP Brazil,,354,https://skyscraperpage.com/cities?buildingID=11017,354,NA,NA,"c(""Structural Types"", ""- highrise"")",0,0,0,1,Other,Rua Libero Badaró 188,-22.931258,-43.38264
Edificio Irineu Máier,30,built,1973,Rua Cariolano 319,Sao Paulo SP Brazil,,354,https://skyscraperpage.com/cities?buildingID=10973,354,NA,NA,"c(""Structural Types"", ""- highrise"")",0,0,0,1,Other,Rua Cariolano 319,-3.3030972,-60.6173107
Edificio Guacuri,30,built,1983,Alameda Rubiao Júnior 8,Sao Paulo SP Brazil,,354,https://skyscraperpage.com/cities?buildingID=10978,354,NA,NA,"c(""Structural Types"", ""- highrise"")",0,0,0,1,Other,Alameda Rubiao Júnior 8,-22.8875066,-48.4883483
Edificio Belenzinho,30,built,1987,Rua Belisário Campana 155,Sao Paulo SP Brazil,,354,https://skyscraperpage.com/cities?buildingID=10970,354,NA,NA,"c(""Structural Types"", ""- highrise"")",0,0,0,1,Other,Rua Belisário Campana 155,20.7034026,-103.3176466
Edificio Avestruz,29,built,1987,Rua Urzela 4,Sao Paulo SP Brazil,,354,https://skyscraperpage.com/cities?buildingID=11025,354,NA,NA,"c(""Structural Types"", ""- highrise"")",0,0,0,1,Other,Rua Urzela 4,-23.5622366,-46.4923544
Edificio Granja Julieta,28,built,1986,Rua Barbosa Lopes 19,Sao Paulo SP Brazil,,354,https://skyscraperpage.com/cities?buildingID=11039,354,NA,NA,"c(""Building Uses"", ""- residential"", ""Structural Types"", ""- highrise"")",1,0,0,0,Residential,Rua Barbosa Lopes 19,-23.6383114,-46.7029291
Edificio Carajás,30,built,1983,Avenida Doutor Arnaldo 1509,Sao Paulo SP Brazil,,351,https://skyscraperpage.com/cities?buildingID=10986,351,NA,NA,"c(""Structural Types"", ""- highrise"")",0,0,0,1,Other,Avenida Doutor Arnaldo 1509,-23.5543196,-46.6704028
Edificio Tiradentes,29,built,1983,Rua Júpiter 18,Sao Paulo SP Brazil,,351,https://skyscraperpage.com/cities?buildingID=11028,351,NA,NA,"c(""Building Uses"", ""- residential"", ""Structural Types"", ""- highrise"")",1,0,0,0,Residential,Rua Júpiter 18,-25.5299392,-49.267977
Edificio Maia 1,29,built,1976,Rua Catarina de Horta 65,Sao Paulo SP Brazil,,348,https://skyscraperpage.com/cities?buildingID=11004,348,NA,NA,"c(""Structural Types"", ""- highrise"")",0,0,0,1,Other,Rua Catarina de Horta 65,-23.548407,-46.4110906
Edifício Conde de Sarzedas,26,built,2006,"Rua Conde de Sarzedas, 100, Sé Centro",Sao Paulo SP Brazil,http://www.arcoweb.com.br/arqu...,348,https://skyscraperpage.com/cities?buildingID=65561,348,NA,NA,"c(""Building Uses"", ""- office"", ""Structural Types"", ""- highrise"", ""Architectural Style"", ""- modern"", ""Materials"", ""- glass"", ""- steel"", ""- aluminium"", ""- granite"", ""- concrete"")",0,1,0,0,Office,"Rua Conde de Sarzedas, 100, Sé Centro",-20.5100994,-54.6052769
Nuances,32,built,2008,Rua Barão do Triunfo 142,Sao Paulo SP Brazil,,NA,https://skyscraperpage.com/cities?buildingID=95063,NA,NA,NA,"c(""Building Uses"", ""- residential"", ""Structural Types"", ""- highrise"")",1,0,0,0,Residential,Rua Barão do Triunfo 142,-23.6266781,-46.68498745093417
Matizes,32,built,2008,Rua Barão do Triunfo 142,Sao Paulo SP Brazil,,NA,https://skyscraperpage.com/cities?buildingID=95062,NA,NA,NA,"c(""Building Uses"", ""- residential"", ""Structural Types"", ""- highrise"")",1,0,0,0,Residential,Rua Barão do Triunfo 142,-23.6266781,-46.68498745093417
Camarotte,32,built,2009,Rua Edson 80,Sao Paulo SP Brazil,,NA,https://skyscraperpage.com/cities?buildingID=95061,NA,NA,NA,"c(""Building Uses"", ""- residential"", ""Structural Types"", ""- highrise"")",1,0,0,0,Residential,Rua Edson 80,-8.0196287,-34.914807
Lindenberg Iguatemi,28,built,2009,Rua Viradouro 120,Sao Paulo SP Brazil,,NA,https://skyscraperpage.com/cities?buildingID=63109,NA,NA,NA,"c(""Building Uses"", ""- residential"", ""Structural Types"", ""- highrise"", ""Architectural Style"", ""- modern"", ""- neo-classical"", ""Materials"", ""- glass"", ""- granite"", ""- concrete, reinforced"", ""- brick"")",1,0,0,0,Residential,Rua Viradouro 120,-23.5851633,-46.6799436
Banco do Brasil,25,built,,Avenida Paulista 2163,Sao Paulo SP Brazil,,NA,https://skyscraperpage.com/cities?buildingID=102690,NA,NA,NA,"c(""Building Uses"", ""- office"", ""Structural Types"", ""- highrise"")",0,1,0,0,Office,Avenida Paulista 2163,-23.5582013,-46.6604179
Edificio Marco Polo,32,built,1985,Rua Caraibas 15,Sao Paulo SP Brazil,,344,https://skyscraperpage.com/cities?buildingID=11000,344,NA,NA,"c(""Structural Types"", ""- highrise"")",0,0,0,1,Other,Rua Caraibas 15,-19.506115,-42.6023001
Edificio Speers,31,built,1988,Rua Goitacás 100,Sao Paulo SP Brazil,,344,https://skyscraperpage.com/cities?buildingID=10987,344,NA,NA,"c(""Structural Types"", ""- highrise"")",0,0,0,1,Other,Rua Goitacás 100,-23.5357622,-46.6618223
Edificio Cidade de Colónia,31,built,1988,Rua Pagúe 17,Sao Paulo SP Brazil,,344,https://skyscraperpage.com/cities?buildingID=10997,344,NA,NA,"c(""Structural Types"", ""- highrise"")",0,0,0,1,Other,Rua Pagúe 17,1.6103558,7.399257908662334
Edificio Popovici,30,built,1994,Rua André Molina 229,Sao Paulo SP Brazil,,344,https://skyscraperpage.com/cities?buildingID=10979,344,NA,NA,"c(""Structural Types"", ""- highrise"")",0,0,0,1,Other,Rua André Molina 229,-23.6058053,-46.4866734
Edificio Maia 2,30,built,1983,Rua Catarina de Horta 67,Sao Paulo SP Brazil,,344,https://skyscraperpage.com/cities?buildingID=11005,344,NA,NA,"c(""Structural Types"", ""- highrise"")",0,0,0,1,Other,Rua Catarina de Horta 67,-23.548407,-46.4110906
Edificio Chaim Herzsprung,30,built,1997,Rua Capimirim 28,Sao Paulo SP Brazil,,344,https://skyscraperpage.com/cities?buildingID=11032,344,NA,NA,"c(""Structural Types"", ""- highrise"")",0,0,0,1,Other,Rua Capimirim 28,-23.6009342,-46.6865965
Edificio's Olga 1-3,29,built,1988,Rua Augusto da Silva 111,Sao Paulo SP Brazil,,344,https://skyscraperpage.com/cities?buildingID=10977,344,NA,NA,"c(""Structural Types"", ""- highrise"")",0,0,0,1,Other,Rua Augusto da Silva 111,-23.5002965,-46.6811925
Edificio Fazenda Nova,29,built,1978,Rua Felipe Lohbauer 451,Sao Paulo SP Brazil,,344,https://skyscraperpage.com/cities?buildingID=10992,344,NA,NA,"c(""Structural Types"", ""- highrise"")",0,0,0,1,Other,Rua Felipe Lohbauer 451,-23.6430758,-46.6882628
Edificio's Aracati 1 & 2,28,built,1988,Rua Artur Bernardes 554,Sao Paulo SP Brazil,,344,https://skyscraperpage.com/cities?buildingID=11007,344,NA,NA,"c(""Structural Types"", ""- highrise"")",0,0,0,1,Other,Rua Artur Bernardes 554,-22.8712909,-43.6310239
Edificio Aracati,28,built,1989,Rua da Danca Cigana 89,Sao Paulo SP Brazil,,344,https://skyscraperpage.com/cities?buildingID=11042,344,NA,NA,"c(""Structural Types"", ""- highrise"")",0,0,0,1,Other,Rua da Danca Cigana 89,-23.6690843,-46.7616494
Edificio Jacaranda,27,built,1988,Rua Andacu 111,Sao Paulo SP Brazil,,341,https://skyscraperpage.com/cities?buildingID=11037,341,NA,NA,"c(""Structural Types"", ""- highrise"")",0,0,0,1,Other,Rua Andacu 111,-23.5018473,-46.6094595
Edificio Crispim,30,built,1979,Rua Igarapé 53,Sao Paulo SP Brazil,,338,https://skyscraperpage.com/cities?buildingID=11003,338,NA,NA,"c(""Structural Types"", ""- highrise"")",0,0,0,1,Other,Rua Igarapé 53,-26.3163328,-48.8272034
Sao Paulo Fashion Hall,25,built,2003,Rua Vupabussu,Sao Paulo SP Brazil,,338,https://skyscraperpage.com/cities?buildingID=84679,338,NA,NA,"c(""Building Uses"", ""- residential"", ""Structural Types"", ""- highrise"", ""Architectural Style"", ""- modern"")",1,0,0,0,Residential,Rua Vupabussu,-23.5598899,-46.6979469
Edificio General Osório,29,built,1980,Rua Lisboa 54,Sao Paulo SP Brazil,,335,https://skyscraperpage.com/cities?buildingID=11001,335,NA,NA,"c(""Building Uses"", ""- residential"", ""Structural Types"", ""- highrise"")",1,0,0,0,Residential,Rua Lisboa 54,-1.3650911,-48.4331256
Edificio Barnabé Corréa,28,built,1979,Rua Fáustolo 119,Sao Paulo SP Brazil,,335,https://skyscraperpage.com/cities?buildingID=10975,335,NA,NA,"c(""Structural Types"", ""- highrise"")",0,0,0,1,Other,Rua Fáustolo 119,-23.5239355,-46.688417
Plaza Iguatemi Business Center,21,built,2002,Avenida Brigadeiro Faria Lima 2277,Sao Paulo SP Brazil,,335,https://skyscraperpage.com/cities?buildingID=11072,335,NA,NA,"c(""Building Uses"", ""- office"", ""Structural Types"", ""- highrise"")",0,1,0,0,Office,Avenida Brigadeiro Faria Lima 2277,-23.5658386,-46.6944384
E.Office Berrini,28,built,2012,Av. Engenheiro Luís Carlos Berrini 1748 Vila Olimpia,Sao Paulo SP Brazil,,NA,https://skyscraperpage.com/cities?buildingID=109305,NA,NA,NA,"c(""Building Uses"", ""- office"", ""Structural Types"", ""- highrise"", ""Architectural Style"", ""- postmodern"", ""Materials"", ""- glass"", ""- concrete, reinforced"")",0,1,0,0,Office,Av. Engenheiro Luís Carlos Berrini 1748 Vila Olimpia,-23.5998479,-46.6910163
Boulevard Sul,20,built,2005,Rua Gomes de Carvalho 1634-1666,Sao Paulo SP Brazil,,332,https://skyscraperpage.com/cities?buildingID=84680,332,NA,NA,"c(""Building Uses"", ""- office"", ""Structural Types"", ""- highrise"", ""Architectural Style"", ""- modern"", ""Materials"", ""- glass"", ""- stucco"")",0,1,0,0,Office,Rua Gomes de Carvalho 1634-1666,-23.595374,-46.6886508
Edificio São Luis Gonzaga,24,built,2000,Avenida Paulista 2300,Sao Paulo SP Brazil,,331,https://skyscraperpage.com/cities?buildingID=1580,331,NA,NA,"c(""Building Uses"", ""- office"", ""- retail"", ""Structural Types"", ""- highrise"", ""Architectural Style"", ""- modern"")",0,1,0,0,Office,Avenida Paulista 2300,-23.5567972,-46.6612401
Edificio Imbé 1,29,built,1986,Rua Estéváo Kaltenbacher 4,Sao Paulo SP Brazil,,331,https://skyscraperpage.com/cities?buildingID=11040,331,NA,NA,"c(""Structural Types"", ""- highrise"")",0,0,0,1,Other,Rua Estéváo Kaltenbacher 4,-23.6754117,-46.7659168
Edificio Hellada,29,built,1984,Rua Manoel Borba 72,Sao Paulo SP Brazil,,331,https://skyscraperpage.com/cities?buildingID=10994,331,NA,NA,"c(""Structural Types"", ""- highrise"")",0,0,0,1,Other,Rua Manoel Borba 72,-8.06162955,-34.886407436247154
Edificio Maximilian Groskopf,28,built,1989,Rua Albertina 103,Sao Paulo SP Brazil,,331,https://skyscraperpage.com/cities?buildingID=10995,331,NA,NA,"c(""Structural Types"", ""- highrise"")",0,0,0,1,Other,Rua Albertina 103,-5.0323832,-42.8224337
Ed. Bertioga,27,built,1978,Rua Cacilda Becker 4,Sao Paulo SP Brazil,,331,https://skyscraperpage.com/cities?buildingID=10968,331,NA,NA,"c(""Structural Types"", ""- highrise"")",0,0,0,1,Other,Rua Cacilda Becker 4,-23.6244916,-46.6908306
Torre Paineira,31,built,2009,Rua Volta Redonda 270,Sao Paulo SP Brazil,,NA,https://skyscraperpage.com/cities?buildingID=96480,NA,NA,NA,"c(""Building Uses"", ""- residential"", ""Structural Types"", ""- highrise"")",1,0,0,0,Residential,Rua Volta Redonda 270,-22.8186695,-43.3585618
Torre Figueira,31,built,2009,Rua Volta Redonda 270,Sao Paulo SP Brazil,,NA,https://skyscraperpage.com/cities?buildingID=96479,NA,NA,NA,"c(""Building Uses"", ""- residential"", ""Structural Types"", ""- highrise"")",1,0,0,0,Residential,Rua Volta Redonda 270,-22.8186695,-43.3585618
Majuy,31,built,2006,Rua Itapaiuna 1800,Sao Paulo SP Brazil,,NA,https://skyscraperpage.com/cities?buildingID=95106,NA,NA,NA,"c(""Building Uses"", ""- residential"", ""Structural Types"", ""- highrise"")",1,0,0,0,Residential,Rua Itapaiuna 1800,-23.637809,-46.72932395
Acqualife Torre B,31,built,2009,Rua da Paz 2150,Sao Paulo SP Brazil,,NA,https://skyscraperpage.com/cities?buildingID=96179,NA,NA,NA,"c(""Building Uses"", ""- residential"", ""Structural Types"", ""- highrise"")",1,0,0,0,Residential,Rua da Paz 2150,-2.586737,-44.192991
Acqualife Torre A,31,built,2009,Rua da Paz 2150,Sao Paulo SP Brazil,,NA,https://skyscraperpage.com/cities?buildingID=96178,NA,NA,NA,"c(""Building Uses"", ""- residential"", ""Structural Types"", ""- highrise"")",1,0,0,0,Residential,Rua da Paz 2150,-2.586737,-44.192991
Alameda das Flores,30,built,2008,Rua Castro Alves 507,Sao Paulo SP Brazil,,NA,https://skyscraperpage.com/cities?buildingID=96473,NA,NA,NA,"c(""Building Uses"", ""- residential"", ""Structural Types"", ""- highrise"")",1,0,0,0,Residential,Rua Castro Alves 507,-23.7292313,-46.5732969
Sheynna Tower,27,built,,"Rua Goitacás, 76",Sao Paulo SP Brazil,,NA,https://skyscraperpage.com/cities?buildingID=91805,NA,NA,NA,"c(""Building Uses"", ""- residential"", ""Structural Types"", ""- highrise"")",1,0,0,0,Residential,"Rua Goitacás, 76",-23.5357622,-46.6618223
Tribunal Regional do Trabalho da 2ª Região,26,built,,Rua da Consolação 1272,Sao Paulo SP Brazil,,NA,https://skyscraperpage.com/cities?buildingID=95822,NA,NA,NA,"c(""Building Uses"", ""- office"", ""Structural Types"", ""- highrise"")",0,1,0,0,Office,Rua da Consolação 1272,-23.5494019,-46.6533475
Angélica Trade Center,26,built,1999,Avenida Angélica 2466,Sao Paulo SP Brazil,,NA,https://skyscraperpage.com/cities?buildingID=95823,NA,NA,NA,"c(""Building Uses"", ""- office"", ""Structural Types"", ""- highrise"")",0,1,0,0,Office,Avenida Angélica 2466,-23.5534485,-46.6621578
Torre 2000,25,built,2002,"Rua dos Pinheiros, 870",Sao Paulo SP Brazil,,328,https://skyscraperpage.com/cities?buildingID=10874,328,NA,NA,"c(""Building Uses"", ""- office"", ""Structural Types"", ""- highrise"", ""Architectural Style"", ""- modern"")",0,1,0,0,Office,"Rua dos Pinheiros, 870",-23.5669455,-46.6862311
Edifício Faria Lima,25,built,1986,"Brigadeiro Faria Lima 1355, Pinheiros",Sao Paulo SP Brazil,,328,https://skyscraperpage.com/cities?buildingID=10948,328,NA,NA,"c(""Building Uses"", ""- office"", ""Structural Types"", ""- highrise"", ""Architectural Style"", ""- modern"", ""Materials"", ""- glass"", ""- granite"", ""- concrete, reinforced"")",0,1,0,0,Office,"Brigadeiro Faria Lima 1355, Pinheiros",-23.5684664,-46.6921933
Conjunto Nacional,25,built,1958,"Avenida Paulista, 2073 - Jardim Paulista",Sao Paulo SP Brazil,http://www.ccn.com.br/,384,https://skyscraperpage.com/cities?buildingID=10952,384,328,NA,"c(""Building Uses"", ""- mixed use"", ""- office"", ""- residential"", ""- restaurant"", ""- retail"", ""- cinema"", ""- fitness center"", ""Structural Types"", ""- highrise"", ""Architectural Style"", ""- modern"", ""Materials"", ""- glass"", ""- stone"", ""- aluminium"", ""- concrete"")",1,1,0,0,Mixed Use,"Avenida Paulista, 2073 - Jardim Paulista",-23.5588961,-46.6606873
Palácio Clóvis Ribeiro,23,built,1950,"Avenida Rangel Pestana, 300 - Sé",Sao Paulo SP Brazil,http://www.fazenda.sp.gov.br/,328,https://skyscraperpage.com/cities?buildingID=10967,328,NA,NA,"c(""Building Uses"", ""- office"", ""Structural Types"", ""- highrise"", ""Architectural Style"", ""- art deco"")",0,1,0,0,Office,"Avenida Rangel Pestana, 300 - Sé",-23.550179749999998,-46.63037398824458
Edifício Luiz Eulálio Bueno Vidigal Filho,20,built,1979,Avenida Paulista 1313 - Jardim Paulista,Sao Paulo SP Brazil,,325,https://skyscraperpage.com/cities?buildingID=10949,325,NA,NA,"c(""Building Uses"", ""- office"", ""Structural Types"", ""- highrise"", ""Architectural Style"", ""- modern"", ""Materials"", ""- steel"", ""- concrete"")",0,1,0,0,Office,Avenida Paulista 1313 - Jardim Paulista,-23.5634149,-46.6544339
Comfort Jardim Europa,30,built,2001,Rua João Cachoeira 131,Sao Paulo SP Brazil,,322,https://skyscraperpage.com/cities?buildingID=10885,322,NA,NA,"c(""Building Uses"", ""- mixed use"", ""Structural Types"", ""- highrise"")",0,0,0,1,Other,Rua João Cachoeira 131,-23.587373,-46.6769426
Golden Tulip Paulista Plaza Hotel,28,built,1999,"Alameda Santos, 85 - Paraíso",Sao Paulo SP Brazil,http://www.paulistaplaza.com.br/,322,https://skyscraperpage.com/cities?buildingID=10911,322,NA,NA,"c(""Building Uses"", ""- hotel"", ""Structural Types"", ""- highrise"", ""Architectural Style"", ""- modern"", ""Materials"", ""- glass"", ""- aluminium"", ""- concrete, reinforced"")",0,0,1,0,Hotel,"Alameda Santos, 85 - Paraíso",-23.5716482,-46.64643172612593
Rubine,30,built,2008,Rua Guararapes 2073,Sao Paulo SP Brazil,,NA,https://skyscraperpage.com/cities?buildingID=15415,NA,NA,NA,"c(""Building Uses"", ""- residential"", ""Structural Types"", ""- highrise"")",1,0,0,0,Residential,Rua Guararapes 2073,-21.2474679,-50.6503938
Moongate,30,built,2005,Rua Arandu 222,Sao Paulo SP Brazil,,NA,https://skyscraperpage.com/cities?buildingID=14809,NA,NA,NA,"c(""Building Uses"", ""- residential"", ""Structural Types"", ""- highrise"")",1,0,0,0,Residential,Rua Arandu 222,-22.9129517,-43.2630897
Magenta,30,built,2008,Rua Guararapes 2073,Sao Paulo SP Brazil,,NA,https://skyscraperpage.com/cities?buildingID=8255,NA,NA,NA,"c(""Building Uses"", ""- residential"", ""Structural Types"", ""- highrise"")",1,0,0,0,Residential,Rua Guararapes 2073,-21.2474679,-50.6503938
Cyan,30,built,2008,Rua Guararapes 2073,Sao Paulo SP Brazil,,NA,https://skyscraperpage.com/cities?buildingID=45273,NA,NA,NA,"c(""Building Uses"", ""- residential"", ""Structural Types"", ""- highrise"")",1,0,0,0,Residential,Rua Guararapes 2073,-21.2474679,-50.6503938
Britannia Bay,30,built,2005,Rua Arandu 222,Sao Paulo SP Brazil,,NA,https://skyscraperpage.com/cities?buildingID=20537,NA,NA,NA,"c(""Building Uses"", ""- residential"", ""Structural Types"", ""- highrise"")",1,0,0,0,Residential,Rua Arandu 222,-22.9129517,-43.2630897
Caesar Business Hotel Paulista,26,built,2003,Avenida Paulista 2181,Sao Paulo SP Brazil,,NA,https://skyscraperpage.com/cities?buildingID=102689,NA,NA,NA,"c(""Building Uses"", ""- hotel"", ""Structural Types"", ""- highrise"")",0,0,1,0,Hotel,Avenida Paulista 2181,-23.5579362,-46.6607648
Edificio Garagem @ Rua da Cantareira,32,built,,Rua da Cantareira,Sao Paulo SP Brazil,,NA,https://skyscraperpage.com/cities?buildingID=96396,NA,NA,NA,"c(""Building Uses"", ""- parking garage"", ""Structural Types"", ""- highrise"")",0,0,0,1,Other,Rua da Cantareira,-23.5344981,-46.6270123
Orion,30,built,2006,Rua do Rócio 450,Sao Paulo SP Brazil,,315,https://skyscraperpage.com/cities?buildingID=84681,315,NA,NA,"c(""Building Uses"", ""- residential"", ""Structural Types"", ""- highrise"", ""Architectural Style"", ""- modern"")",1,0,0,0,Residential,Rua do Rócio 450,-23.2186776,-44.7217044
Hydrus,30,built,2006,Rua do Rócio 450,Sao Paulo SP Brazil,,315,https://skyscraperpage.com/cities?buildingID=84682,315,NA,NA,"c(""Building Uses"", ""- residential"", ""Structural Types"", ""- highrise"", ""Architectural Style"", ""- modern"")",1,0,0,0,Residential,Rua do Rócio 450,-23.2186776,-44.7217044
Edifício Faria Lima Premium,25,built,1999,"Rua Diogo Moreira, 132 - Pinheiros",Sao Paulo SP Brazil,,315,https://skyscraperpage.com/cities?buildingID=5826,315,NA,NA,"c(""Building Uses"", ""- office"", ""Structural Types"", ""- highrise"", ""- landing pad"", ""Architectural Style"", ""- modern"")",0,1,0,0,Office,"Rua Diogo Moreira, 132 - Pinheiros",-23.5699318,-46.6929431
Edificio Piazza Navona,23,built,2000,Rua Aracaju 201,Sao Paulo SP Brazil,,315,https://skyscraperpage.com/cities?buildingID=11020,315,NA,NA,"c(""Building Uses"", ""- residential"", ""Structural Types"", ""- highrise"")",1,0,0,0,Residential,Rua Aracaju 201,-25.4545232,-49.2127562
Paulista I,25,built,1975,Avenida Paulista 1337,Sao Paulo SP Brazil,,312,https://skyscraperpage.com/cities?buildingID=10946,312,NA,NA,"c(""Building Uses"", ""- office"", ""- communication"", ""Structural Types"", ""- highrise"", ""Architectural Style"", ""- modern"", ""Materials"", ""- glass"", ""- steel"", ""- granite"", ""- concrete, reinforced"")",0,1,0,0,Office,Avenida Paulista 1337,-23.5632793,-46.6546269
Helbor Loft Evolution 2,23,built,2003,590 Rua Mourato Coelho,Sao Paulo SP Brazil,,312,https://skyscraperpage.com/cities?buildingID=11070,312,NA,NA,"c(""Building Uses"", ""- residential"", ""Structural Types"", ""- highrise"")",1,0,0,0,Residential,590 Rua Mourato Coelho,-23.5621575,-46.6884291
Olimpic Torre B,31,built,2009,Rua Fernandes Moreira 1550,Sao Paulo SP Brazil,,NA,https://skyscraperpage.com/cities?buildingID=96181,NA,NA,NA,"c(""Building Uses"", ""- residential"", ""Structural Types"", ""- highrise"")",1,0,0,0,Residential,Rua Fernandes Moreira 1550,-23.6287251,-46.7082631
Olimpic Torre A,31,built,2009,Rua Fernandes Moreira 1550,Sao Paulo SP Brazil,,NA,https://skyscraperpage.com/cities?buildingID=96180,NA,NA,NA,"c(""Building Uses"", ""- residential"", ""Structural Types"", ""- highrise"")",1,0,0,0,Residential,Rua Fernandes Moreira 1550,-23.6287251,-46.7082631
Barão de Campo Belo,30,built,2007,Rua João de Souza Dias 531,Sao Paulo SP Brazil,,NA,https://skyscraperpage.com/cities?buildingID=96481,NA,NA,NA,"c(""Building Uses"", ""- residential"", ""Structural Types"", ""- highrise"")",1,0,0,0,Residential,Rua João de Souza Dias 531,-20.6362746,-43.7965163
Bolsa de Cereais do Estado de São Paulo,29,built,1960,Avenida Senador Queirós 605,Sao Paulo SP Brazil,,NA,https://skyscraperpage.com/cities?buildingID=96399,NA,NA,NA,"c(""Building Uses"", ""- office"", ""Structural Types"", ""- highrise"")",0,1,0,0,Office,Avenida Senador Queirós 605,-23.5397662,-46.6302917
East Side Condominium Club,27,built,2007,"Rua Apeninos, 800 - Paraíso",Sao Paulo SP Brazil,,NA,https://skyscraperpage.com/cities?buildingID=63906,NA,NA,NA,"c(""Building Uses"", ""- residential"", ""Structural Types"", ""- highrise"", ""Architectural Style"", ""- modern"")",1,0,0,0,Residential,"Rua Apeninos, 800 - Paraíso",-23.5744398,-46.6396082
Lion D'Or,23,built,2010,Rua Safira 368,Sao Paulo SP Brazil,,NA,https://skyscraperpage.com/cities?buildingID=102700,NA,NA,NA,"c(""Building Uses"", ""- residential"", ""Structural Types"", ""- highrise"")",1,0,0,0,Residential,Rua Safira 368,-20.0698228,-44.5645239
Up Side Condominium Club,27,built,2006,"Rua Doutor Eduardo Amaro, 99 - Paraíso",Sao Paulo SP Brazil,,NA,https://skyscraperpage.com/cities?buildingID=63905,NA,NA,NA,"c(""Building Uses"", ""- residential"", ""Structural Types"", ""- highrise"", ""Architectural Style"", ""- modern"")",1,0,0,0,Residential,"Rua Doutor Eduardo Amaro, 99 - Paraíso",-23.5749865,-46.6396989
Edifício Eluma,25,built,1987,"Avenida Paulista, 1294 - Bela Vista",Sao Paulo SP Brazil,,310,https://skyscraperpage.com/cities?buildingID=10944,310,NA,NA,"c(""Building Uses"", ""- office"", ""Structural Types"", ""- highrise"", ""Architectural Style"", ""- modern"", ""Materials"", ""- glass"", ""- granite"", ""- concrete"")",0,1,0,0,Office,"Avenida Paulista, 1294 - Bela Vista",-23.5631921,-46.6540145
Unibanco Building,22,built,,"Avenida Eusébio Matoso, 891 - Pinheiros",Sao Paulo SP Brazil,,310,https://skyscraperpage.com/cities?buildingID=10951,310,NA,NA,"c(""Building Uses"", ""- office"", ""Structural Types"", ""- highrise"", ""Architectural Style"", ""- modern"")",0,1,0,0,Office,"Avenida Eusébio Matoso, 891 - Pinheiros",-23.5720951,-46.6987279
Hyde Park,28,built,2007,On the Park,Sao Paulo SP Brazil,,308,https://skyscraperpage.com/cities?buildingID=84684,308,NA,NA,"c(""Building Uses"", ""- residential"", ""Structural Types"", ""- highrise"", ""Architectural Style"", ""- postmodern"")",1,0,0,0,Residential,On the Park,51.460045699999995,-2.5460045552969524
Central Park,27,built,2007,On the Park,Sao Paulo SP Brazil,,308,https://skyscraperpage.com/cities?buildingID=84683,308,NA,NA,"c(""Building Uses"", ""- residential"", ""Structural Types"", ""- highrise"", ""Architectural Style"", ""- postmodern"")",1,0,0,0,Residential,On the Park,51.460045699999995,-2.5460045552969524
Central Park,27,built,2007,Avenida Paulista 2198-2200,Sao Paulo SP Brazil,,307,https://skyscraperpage.com/cities?buildingID=95825,307,NA,NA,"c(""Building Uses"", ""- office"", ""Structural Types"", ""- highrise"")",0,1,0,0,Office,Avenida Paulista 2198-2200,-23.5646806,-46.6772638
Edifício Igarassu,20,built,,"Rua Surubim, 577",Sao Paulo SP Brazil,,NA,https://skyscraperpage.com/cities?buildingID=95229,NA,NA,NA,"c(""Building Uses"", ""- office"", ""Structural Types"", ""- highrise"")",0,1,0,0,Office,"Rua Surubim, 577",-23.6015856,-46.6912805
Central Park,25,built,1970,On the Park,Sao Paulo SP Brazil,,308,https://skyscraperpage.com/cities?buildingID=84683,308,NA,NA,"c(""Building Uses"", ""- residential"", ""Structural Types"", ""- highrise"", ""Architectural Style"", ""- postmodern"")",1,0,0,0,Residential,On the Park,51.460045699999995,-2.5460045552969524
Central Park,25,built,1970,Avenida Paulista 2198-2200,Sao Paulo SP Brazil,,307,https://skyscraperpage.com/cities?buildingID=95825,307,NA,NA,"c(""Building Uses"", ""- office"", ""Structural Types"", ""- highrise"")",0,1,0,0,Office,Avenida Paulista 2198-2200,-23.5646806,-46.6772638
Vitale,31,built,2005,Rua Voluntários da Pátria 4280,Sao Paulo SP Brazil,,NA,https://skyscraperpage.com/cities?buildingID=95138,NA,NA,NA,"c(""Building Uses"", ""- residential"", ""Structural Types"", ""- highrise"")",1,0,0,0,Residential,Rua Voluntários da Pátria 4280,-23.4840472,-46.6306505
Seabreeze,29,built,2005,Rua Arandu 222,Sao Paulo SP Brazil,,NA,https://skyscraperpage.com/cities?buildingID=15115,NA,NA,NA,"c(""Building Uses"", ""- residential"", ""Structural Types"", ""- highrise"")",1,0,0,0,Residential,Rua Arandu 222,-22.9129517,-43.2630897
Lagoon Bay,29,built,2005,Rua Arandu 222,Sao Paulo SP Brazil,,NA,https://skyscraperpage.com/cities?buildingID=1742,NA,NA,NA,"c(""Building Uses"", ""- residential"", ""Structural Types"", ""- highrise"")",1,0,0,0,Residential,Rua Arandu 222,-22.9129517,-43.2630897
Citicorp Center,21,built,1986,Avenida Paulista 1111,Sao Paulo SP Brazil,,305,https://skyscraperpage.com/cities?buildingID=10900,305,NA,NA,"c(""Building Uses"", ""- office"", ""Structural Types"", ""- highrise"", ""- landing pad"", ""Architectural Style"", ""- postmodern"")",0,1,0,0,Office,Avenida Paulista 1111,-23.56468,-46.6532144
Edifício Presidente Altino Arantes,27,built,1951,111 Rua XV de Novembro,Sao Paulo SP Brazil,,NA,https://skyscraperpage.com/cities?buildingID=91540,NA,NA,NA,"c(""Building Uses"", ""- office"", ""Structural Types"", ""- highrise"", ""Architectural Style"", ""- modern"", ""Materials"", ""- brick"")",0,1,0,0,Office,111 Rua XV de Novembro,-24.311733500000003,-48.945624292990296
Helbor Loft Evolution,22,built,2002,150 Rua Lisboa Jardim América,Sao Paulo SP Brazil,,299,https://skyscraperpage.com/cities?buildingID=11069,299,NA,NA,"c(""Building Uses"", ""- residential"", ""Structural Types"", ""- highrise"")",1,0,0,0,Residential,150 Rua Lisboa Jardim América,-23.0862607,-48.9218297
Edifício Lindenberg Tangará,27,built,,Avenida Carlos Queiroz Telles 30,Sao Paulo SP Brazil,,NA,https://skyscraperpage.com/cities?buildingID=63120,NA,NA,NA,"c(""Building Uses"", ""- residential"", ""Structural Types"", ""- highrise"", ""Architectural Style"", ""- neo-classical"", ""Materials"", ""- glass"", ""- granite"", ""- concrete, reinforced"", ""- brick"")",1,0,0,0,Residential,Avenida Carlos Queiroz Telles 30,-23.6296942,-46.7222239
Ana Luíza,26,built,2000,"Rua Doutor Tomás Carvalhal, 880 - Vila Mariana",Sao Paulo SP Brazil,,NA,https://skyscraperpage.com/cities?buildingID=11055,NA,NA,NA,"c(""Building Uses"", ""- residential"", ""Structural Types"", ""- highrise"", ""Architectural Style"", ""- modern"", ""Materials"", ""- concrete"")",1,0,0,0,Residential,"Rua Doutor Tomás Carvalhal, 880 - Vila Mariana",-23.5755758,-46.6423544
Sao Paulo Trade Building,17,built,1999,Rua Funchal 375,Sao Paulo SP Brazil,,299,https://skyscraperpage.com/cities?buildingID=84686,299,NA,NA,"c(""Building Uses"", ""- office"", ""Structural Types"", ""- highrise"", ""Architectural Style"", ""- modern"")",0,1,0,0,Office,Rua Funchal 375,-23.5939811,-46.6897628
Eternity,28,built,2007,Rua Eleonora Cintra 900,Sao Paulo SP Brazil,,298,https://skyscraperpage.com/cities?buildingID=84687,298,NA,NA,"c(""Building Uses"", ""- residential"", ""Structural Types"", ""- highrise"", ""Architectural Style"", ""- modern"")",1,0,0,0,Residential,Rua Eleonora Cintra 900,-23.5564819,-46.5600007
Altana,27,built,2006,Avenida República do Líbano 1873,Sao Paulo SP Brazil,,296,https://skyscraperpage.com/cities?buildingID=84688,296,NA,NA,"c(""Building Uses"", ""- residential"", ""Structural Types"", ""- highrise"", ""Architectural Style"", ""- postmodern"")",1,0,0,0,Residential,Avenida República do Líbano 1873,-23.5948365,-46.6645574
Vivre Torre A,30,built,2010,Rua Doutor Antônio Bento 504,Sao Paulo SP Brazil,,NA,https://skyscraperpage.com/cities?buildingID=96182,NA,NA,NA,"c(""Building Uses"", ""- residential"", ""Structural Types"", ""- highrise"")",1,0,0,0,Residential,Rua Doutor Antônio Bento 504,-23.6453305,-46.7021678
Visage,30,built,2008,Rua Doutor Ferreira Lópes 560,Sao Paulo SP Brazil,,NA,https://skyscraperpage.com/cities?buildingID=96279,NA,NA,NA,"c(""Building Uses"", ""- residential"", ""Structural Types"", ""- highrise"")",1,0,0,0,Residential,Rua Doutor Ferreira Lópes 560,-23.658555,-46.696656
Rugendas,30,built,,Rua Manoel da Nóbrega 1240,Sao Paulo SP Brazil,,NA,https://skyscraperpage.com/cities?buildingID=95127,NA,NA,NA,"c(""Building Uses"", ""- residential"", ""Structural Types"", ""- highrise"")",1,0,0,0,Residential,Rua Manoel da Nóbrega 1240,-25.55544,-49.2656707
Reserva Marajoara Park Bloco C,30,built,,Avenida João Peixoto Viegas 193,Sao Paulo SP Brazil,,NA,https://skyscraperpage.com/cities?buildingID=96214,NA,NA,NA,"c(""Building Uses"", ""- residential"", ""Structural Types"", ""- highrise"")",1,0,0,0,Residential,Avenida João Peixoto Viegas 193,-23.668359,-46.6775984
Reserva Marajoara Park Bloco B,30,built,,Avenida João Peixoto Viegas 193,Sao Paulo SP Brazil,,NA,https://skyscraperpage.com/cities?buildingID=96213,NA,NA,NA,"c(""Building Uses"", ""- residential"", ""Structural Types"", ""- highrise"")",1,0,0,0,Residential,Avenida João Peixoto Viegas 193,-23.668359,-46.6775984
Reserva Marajoara Park Bloco A,30,built,,Avenida João Peixoto Viegas 193,Sao Paulo SP Brazil,,NA,https://skyscraperpage.com/cities?buildingID=96212,NA,NA,NA,"c(""Building Uses"", ""- residential"", ""Structural Types"", ""- highrise"")",1,0,0,0,Residential,Avenida João Peixoto Viegas 193,-23.668359,-46.6775984
Ornato,30,built,2009,Alameda dos Jurupis 767,Sao Paulo SP Brazil,,NA,https://skyscraperpage.com/cities?buildingID=95129,NA,NA,NA,"c(""Building Uses"", ""- residential"", ""Structural Types"", ""- highrise"")",1,0,0,0,Residential,Alameda dos Jurupis 767,-23.6015358,-46.6571615
Iepê Golf Condominium Torre 6,30,built,2008,Avenida Engenheiro Alberto de Zagottis 897,Sao Paulo SP Brazil,,NA,https://skyscraperpage.com/cities?buildingID=96277,NA,NA,NA,"c(""Building Uses"", ""- residential"", ""Structural Types"", ""- highrise"")",1,0,0,0,Residential,Avenida Engenheiro Alberto de Zagottis 897,-23.6665947,-46.6949032
Iepê Golf Condominium Torre 5,30,built,2008,Avenida Engenheiro Alberto de Zagottis 897,Sao Paulo SP Brazil,,NA,https://skyscraperpage.com/cities?buildingID=96276,NA,NA,NA,"c(""Building Uses"", ""- residential"", ""Structural Types"", ""- highrise"")",1,0,0,0,Residential,Avenida Engenheiro Alberto de Zagottis 897,-23.6665947,-46.6949032
Iepê Golf Condominium Torre 4,30,built,2008,Avenida Engenheiro Alberto de Zagottis 897,Sao Paulo SP Brazil,,NA,https://skyscraperpage.com/cities?buildingID=96275,NA,NA,NA,"c(""Building Uses"", ""- residential"", ""Structural Types"", ""- highrise"")",1,0,0,0,Residential,Avenida Engenheiro Alberto de Zagottis 897,-23.6665947,-46.6949032
Iepê Golf Condominium Torre 3,30,built,2008,Avenida Engenheiro Alberto de Zagottis 897,Sao Paulo SP Brazil,,NA,https://skyscraperpage.com/cities?buildingID=96274,NA,NA,NA,"c(""Building Uses"", ""- residential"", ""Structural Types"", ""- highrise"")",1,0,0,0,Residential,Avenida Engenheiro Alberto de Zagottis 897,-23.6665947,-46.6949032
Iepê Golf Condominium Torre 2,30,built,2008,Avenida Engenheiro Alberto de Zagottis 897,Sao Paulo SP Brazil,,NA,https://skyscraperpage.com/cities?buildingID=96273,NA,NA,NA,"c(""Building Uses"", ""- residential"", ""Structural Types"", ""- highrise"")",1,0,0,0,Residential,Avenida Engenheiro Alberto de Zagottis 897,-23.6665947,-46.6949032
Iepê Golf Condominium Torre 1,30,built,2008,Avenida Engenheiro Alberto de Zagottis 897,Sao Paulo SP Brazil,,NA,https://skyscraperpage.com/cities?buildingID=96272,NA,NA,NA,"c(""Building Uses"", ""- residential"", ""Structural Types"", ""- highrise"")",1,0,0,0,Residential,Avenida Engenheiro Alberto de Zagottis 897,-23.6665947,-46.6949032
Grand Phoenix,30,built,2005,Rua Borba Gato 331,Sao Paulo SP Brazil,,NA,https://skyscraperpage.com/cities?buildingID=96200,NA,NA,NA,"c(""Building Uses"", ""- residential"", ""Structural Types"", ""- highrise"")",1,0,0,0,Residential,Rua Borba Gato 331,-23.6568592,-46.6996914
Well,28,built,2008,Rua Doutor Miranda de Azevedo 1155,Sao Paulo SP Brazil,,NA,https://skyscraperpage.com/cities?buildingID=95805,NA,NA,NA,"c(""Building Uses"", ""- residential"", ""Structural Types"", ""- highrise"")",1,0,0,0,Residential,Rua Doutor Miranda de Azevedo 1155,-23.5264078,-46.6877758
Spazio di Vivere,28,built,2006,Rua General Góis Monteiro 18,Sao Paulo SP Brazil,,NA,https://skyscraperpage.com/cities?buildingID=95806,NA,NA,NA,"c(""Building Uses"", ""- residential"", ""Structural Types"", ""- highrise"")",1,0,0,0,Residential,Rua General Góis Monteiro 18,-23.5416719,-46.6929667
Paulicéia,28,built,2008,Rua Vergueiro 266,Sao Paulo SP Brazil,,NA,https://skyscraperpage.com/cities?buildingID=96475,NA,NA,NA,"c(""Building Uses"", ""- residential"", ""Structural Types"", ""- highrise"")",1,0,0,0,Residential,Rua Vergueiro 266,-23.5684579,-46.6399898
Metrópole,28,built,2008,Rua Vergueiro 266,Sao Paulo SP Brazil,,NA,https://skyscraperpage.com/cities?buildingID=96474,NA,NA,NA,"c(""Building Uses"", ""- residential"", ""Structural Types"", ""- highrise"")",1,0,0,0,Residential,Rua Vergueiro 266,-23.5684579,-46.6399898
Aspen,28,built,1999,Rua Nilo 275,Sao Paulo SP Brazil,,NA,https://skyscraperpage.com/cities?buildingID=96476,NA,NA,NA,"c(""Building Uses"", ""- residential"", ""Structural Types"", ""- highrise"")",1,0,0,0,Residential,Rua Nilo 275,-22.8801839,-43.5545567
Place de L'Étoile,27,built,1996,Rua Maranhão 690,Sao Paulo SP Brazil,,NA,https://skyscraperpage.com/cities?buildingID=95819,NA,NA,NA,"c(""Building Uses"", ""- residential"", ""Structural Types"", ""- highrise"")",1,0,0,0,Residential,Rua Maranhão 690,-2.52945,-44.231334
Olympic Higienópolis,27,built,1996,Avenida Higienópolis 15,Sao Paulo SP Brazil,,NA,https://skyscraperpage.com/cities?buildingID=95818,NA,NA,NA,"c(""Building Uses"", ""- residential"", ""Structural Types"", ""- highrise"")",1,0,0,0,Residential,Avenida Higienópolis 15,-23.3218571,-51.1672002
Long Stay Bela Cintra,27,built,2002,Rua Bela Cintra 521,Sao Paulo SP Brazil,,NA,https://skyscraperpage.com/cities?buildingID=95817,NA,NA,NA,"c(""Building Uses"", ""- residential"", ""Structural Types"", ""- highrise"")",1,0,0,0,Residential,Rua Bela Cintra 521,-23.5533404,-46.657459
Golden Tower,27,built,1985,Rua Bahia 533,Sao Paulo SP Brazil,,NA,https://skyscraperpage.com/cities?buildingID=95821,NA,NA,NA,"c(""Building Uses"", ""- residential"", ""Structural Types"", ""- highrise"")",1,0,0,0,Residential,Rua Bahia 533,-13.005392,-38.4549649
Diogo Home Boutique,27,built,2006,Rua Diogo Jácome 550-554,Sao Paulo SP Brazil,,295,https://skyscraperpage.com/cities?buildingID=84689,295,NA,NA,"c(""Building Uses"", ""- residential"", ""Structural Types"", ""- highrise"", ""Architectural Style"", ""- postmodern"")",1,0,0,0,Residential,Rua Diogo Jácome 550-554,-23.5946126,-46.6662761
Coral Bay,27,built,1995,Rua Bahia 753,Sao Paulo SP Brazil,,NA,https://skyscraperpage.com/cities?buildingID=95820,NA,NA,NA,"c(""Building Uses"", ""- residential"", ""Structural Types"", ""- highrise"")",1,0,0,0,Residential,Rua Bahia 753,-13.005392,-38.4549649
Agrias,27,built,2009,Rua Itapaiuna 1800,Sao Paulo SP Brazil,,NA,https://skyscraperpage.com/cities?buildingID=95107,NA,NA,NA,"c(""Building Uses"", ""- residential"", ""Structural Types"", ""- highrise"")",1,0,0,0,Residential,Rua Itapaiuna 1800,-23.637809,-46.72932395
Wonder,32,built,2006,Rua Diogo Jácome 518,Sao Paulo SP Brazil,,289,https://skyscraperpage.com/cities?buildingID=95126,289,NA,NA,"c(""Building Uses"", ""- residential"", ""Structural Types"", ""- highrise"")",1,0,0,0,Residential,Rua Diogo Jácome 518,-23.5946126,-46.6662761
Window,32,built,2006,Rua Diogo Jácome 518,Sao Paulo SP Brazil,,289,https://skyscraperpage.com/cities?buildingID=95125,289,NA,NA,"c(""Building Uses"", ""- residential"", ""Structural Types"", ""- highrise"")",1,0,0,0,Residential,Rua Diogo Jácome 518,-23.5946126,-46.6662761
Wharehouse,32,built,2006,Rua Diogo Jácome 518,Sao Paulo SP Brazil,,289,https://skyscraperpage.com/cities?buildingID=95124,289,NA,NA,"c(""Building Uses"", ""- residential"", ""Structural Types"", ""- highrise"")",1,0,0,0,Residential,Rua Diogo Jácome 518,-23.5946126,-46.6662761
Jardim América,27,built,1968,Rua da Consolação 3064,Sao Paulo SP Brazil,,NA,https://skyscraperpage.com/cities?buildingID=102692,NA,NA,NA,"c(""Building Uses"", ""- residential"", ""Structural Types"", ""- highrise"")",1,0,0,0,Residential,Rua da Consolação 3064,-23.5594912,-46.6671143
Condomínio Edifício Anita,26,built,1971,"Rua Haddock Lobo, 403",Sao Paulo SP Brazil,,NA,https://skyscraperpage.com/cities?buildingID=113825,NA,NA,NA,"c(""Building Uses"", ""- residential"", ""Structural Types"", ""- highrise"", ""Architectural Style"", ""- modern"")",1,0,0,0,Residential,"Rua Haddock Lobo, 403",-23.5567913,-46.6603039
Edifício Jardim América,25,built,,"Rua Paraguai, 42 - Jardim América",Sao Paulo SP Brazil,,NA,https://skyscraperpage.com/cities?buildingID=11064,NA,NA,NA,"c(""Building Uses"", ""- residential"", ""Structural Types"", ""- highrise"", ""Architectural Style"", ""- modern"", ""Materials"", ""- stone"", ""- concrete (plain)"", ""- brick"")",1,0,0,0,Residential,"Rua Paraguai, 42 - Jardim América",-29.1587984,-51.1702247
Lindenberg ID Itaim,23,built,2009,"Rua Benedito Lapin, 167",Sao Paulo SP Brazil,,NA,https://skyscraperpage.com/cities?buildingID=63107,NA,NA,NA,"c(""Building Uses"", ""- residential"", ""Structural Types"", ""- highrise"", ""Architectural Style"", ""- postmodern"", ""Materials"", ""- glass"", ""- steel"", ""- granite"", ""- concrete, reinforced"", ""- brick"")",1,0,0,0,Residential,"Rua Benedito Lapin, 167",-23.5874635,-46.67364
Vincetori Condominium II,29,built,2004,Avenida Adolfo Pinheiro 760,Sao Paulo SP Brazil,,NA,https://skyscraperpage.com/cities?buildingID=96173,NA,NA,NA,"c(""Building Uses"", ""- residential"", ""Structural Types"", ""- highrise"")",1,0,0,0,Residential,Avenida Adolfo Pinheiro 760,-23.6446768,-46.7003838
Vincetori Condominium I,29,built,2004,Avenida Adolfo Pinheiro 760,Sao Paulo SP Brazil,,NA,https://skyscraperpage.com/cities?buildingID=96172,NA,NA,NA,"c(""Building Uses"", ""- residential"", ""Structural Types"", ""- highrise"")",1,0,0,0,Residential,Avenida Adolfo Pinheiro 760,-23.6446768,-46.7003838
Ibirapuera Park View,29,built,2008,Rua Pirapora 70-86,Sao Paulo SP Brazil,,NA,https://skyscraperpage.com/cities?buildingID=95131,NA,NA,NA,"c(""Building Uses"", ""- residential"", ""Structural Types"", ""- highrise"")",1,0,0,0,Residential,Rua Pirapora 70-86,-22.8687967,-43.485231
Flora Viva,29,built,2007,Rua Sócrates 355,Sao Paulo SP Brazil,,NA,https://skyscraperpage.com/cities?buildingID=96280,NA,NA,NA,"c(""Building Uses"", ""- residential"", ""Structural Types"", ""- highrise"")",1,0,0,0,Residential,Rua Sócrates 355,-23.6591059,-46.6914941
Chateau de Blois,29,built,2005,Avenida Divino Salvador 395,Sao Paulo SP Brazil,,NA,https://skyscraperpage.com/cities?buildingID=95132,NA,NA,NA,"c(""Building Uses"", ""- residential"", ""Structural Types"", ""- highrise"")",1,0,0,0,Residential,Avenida Divino Salvador 395,-23.6067581,-46.65758
Brasília Small Town Flat Service,29,built,,Rua Olavo Egídio 420,Sao Paulo SP Brazil,,NA,https://skyscraperpage.com/cities?buildingID=95140,NA,NA,NA,"c(""Building Uses"", ""- residential"", ""Structural Types"", ""- highrise"")",1,0,0,0,Residential,Rua Olavo Egídio 420,-23.4796489,-47.4428994
Asahi Bank Of Tokyo,21,built,1976,Av. Paulista 1274 Jardim Paulista,Sao Paulo SP Brazil,,NA,https://skyscraperpage.com/cities?buildingID=104875,NA,NA,NA,"c(""Building Uses"", ""- office"", ""Structural Types"", ""- highrise"", ""- truss tower"", ""Architectural Style"", ""- postmodern"", ""Materials"", ""- glass"", ""- steel"", ""- concrete, reinforced"")",0,1,0,0,Office,Av. Paulista 1274 Jardim Paulista,-23.559154,-46.6591443
Walk Vila Nova,30,built,2008,Rua Afonso Brás 747,Sao Paulo SP Brazil,,283,https://skyscraperpage.com/cities?buildingID=95130,283,NA,NA,"c(""Building Uses"", ""- residential"", ""Structural Types"", ""- highrise"")",1,0,0,0,Residential,Rua Afonso Brás 747,-23.9394537,-46.4159204
Barão do Amparo,21,built,1973,Avenida Paulista 2006,Sao Paulo SP Brazil,,NA,https://skyscraperpage.com/cities?buildingID=102693,NA,NA,NA,"c(""Building Uses"", ""- office"", ""Structural Types"", ""- highrise"")",0,1,0,0,Office,Avenida Paulista 2006,-23.5588018,-46.6591008
Mansao Ravello,27,built,2004,Rua Tavares Bastos 68,Sao Paulo SP Brazil,,NA,https://skyscraperpage.com/cities?buildingID=95807,NA,NA,NA,"c(""Building Uses"", ""- residential"", ""Structural Types"", ""- highrise"")",1,0,0,0,Residential,Rua Tavares Bastos 68,-9.6321429,-35.7392924
Solar dos Canelhas,26,built,,Rua Barão do Bananal 490,Sao Paulo SP Brazil,,NA,https://skyscraperpage.com/cities?buildingID=95808,NA,NA,NA,"c(""Building Uses"", ""- residential"", ""Structural Types"", ""- highrise"")",1,0,0,0,Residential,Rua Barão do Bananal 490,-22.8758049,-43.3159044
Reserve Du Parc,26,built,2004,Rua Ministro Godoy 255,Sao Paulo SP Brazil,,NA,https://skyscraperpage.com/cities?buildingID=95810,NA,NA,NA,"c(""Building Uses"", ""- residential"", ""Structural Types"", ""- highrise"")",1,0,0,0,Residential,Rua Ministro Godoy 255,-23.5318204,-46.6684721
Etoile,26,built,2006,Rua Campevas 370,Sao Paulo SP Brazil,,NA,https://skyscraperpage.com/cities?buildingID=95809,NA,NA,NA,"c(""Building Uses"", ""- residential"", ""Structural Types"", ""- highrise"")",1,0,0,0,Residential,Rua Campevas 370,-23.5352549,-46.6744451
Torre Pacífico,25,built,2008,Rua Morais de Barros 960,Sao Paulo SP Brazil,,NA,https://skyscraperpage.com/cities?buildingID=95065,NA,NA,NA,"c(""Building Uses"", ""- residential"", ""Structural Types"", ""- highrise"")",1,0,0,0,Residential,Rua Morais de Barros 960,-23.61484685,-46.673560308464516
Torre Atlântico,25,built,2008,Rua Morais de Barros 960,Sao Paulo SP Brazil,,NA,https://skyscraperpage.com/cities?buildingID=95064,NA,NA,NA,"c(""Building Uses"", ""- residential"", ""Structural Types"", ""- highrise"")",1,0,0,0,Residential,Rua Morais de Barros 960,-23.61484685,-46.673560308464516
Cetenco Plaza Torre Sul,25,built,1981,"Avenida Paulista, 1842",Sao Paulo SP Brazil,,279,https://skyscraperpage.com/cities?buildingID=10957,279,NA,NA,"c(""Building Uses"", ""- office"", ""- government"", ""Structural Types"", ""- highrise"", ""- landing pad"", ""Architectural Style"", ""- modern"", ""Materials"", ""- glass"", ""- aluminium"", ""- concrete (plain)"", ""- concrete, reinforced"")",0,1,0,0,Office,"Avenida Paulista, 1842",-23.5597157,-46.6579375
Cetenco Plaza Torre Norte,25,built,1981,Avenida Paulista 1842,Sao Paulo SP Brazil,,279,https://skyscraperpage.com/cities?buildingID=63590,279,NA,NA,"c(""Building Uses"", ""- office"", ""Structural Types"", ""- highrise"", ""Architectural Style"", ""- modern"", ""Materials"", ""- glass"", ""- aluminium"", ""- concrete (plain)"", ""- concrete, reinforced"")",0,1,0,0,Office,Avenida Paulista 1842,-23.5597157,-46.6579375
Torre Paulista,23,built,,"Avenida Paulista, 949 - Jardim Paulista",Sao Paulo SP Brazil,,279,https://skyscraperpage.com/cities?buildingID=10950,279,NA,NA,"c(""Building Uses"", ""- office"", ""Structural Types"", ""- highrise"", ""Architectural Style"", ""- structural expressionism"", ""Materials"", ""- concrete, reinforced"", ""- concrete"")",0,1,0,0,Office,"Avenida Paulista, 949 - Jardim Paulista",-23.5656233,-46.6518607
Grand Hyatt São Paulo,26,built,2002,Av. Nações Unidas,Sao Paulo SP Brazil,,276,https://skyscraperpage.com/cities?buildingID=10886,276,NA,NA,"c(""Building Uses"", ""- hotel"", ""Structural Types"", ""- highrise"")",0,0,1,0,Hotel,Av. Nações Unidas,-23.6204337,-46.7006208
Pedro Biagi,23,built,1973,Avenida Paulista 460,Sao Paulo SP Brazil,,NA,https://skyscraperpage.com/cities?buildingID=63628,NA,NA,NA,"c(""Building Uses"", ""- office"", ""- parking garage"", ""Structural Types"", ""- highrise"", ""Architectural Style"", ""- modern"")",0,1,0,0,Office,Avenida Paulista 460,-23.5681512,-46.6478309
Passeio,28,built,2009,Rua Joaquim Lima de Moraes,Sao Paulo SP Brazil,,NA,https://skyscraperpage.com/cities?buildingID=96184,NA,NA,NA,"c(""Building Uses"", ""- residential"", ""Structural Types"", ""- highrise"")",1,0,0,0,Residential,Rua Joaquim Lima de Moraes,-23.6262364,-46.6964076
Paradiso,28,built,2005,Rua Voluntários da Pátria 4280,Sao Paulo SP Brazil,,NA,https://skyscraperpage.com/cities?buildingID=95139,NA,NA,NA,"c(""Building Uses"", ""- residential"", ""Structural Types"", ""- highrise"")",1,0,0,0,Residential,Rua Voluntários da Pátria 4280,-23.4840472,-46.6306505
Paradiso,28,built,2005,"Rua Pará, 391",Sao Paulo SP Brazil,,NA,https://skyscraperpage.com/cities?buildingID=95827,NA,NA,NA,"c(""Building Uses"", ""- residential"", ""Structural Types"", ""- highrise"")",1,0,0,0,Residential,"Rua Pará, 391",-1.3738759,-48.4295841
Mansão Francisca Júlia,28,built,2007,Rua Francisca Júlia 277,Sao Paulo SP Brazil,,NA,https://skyscraperpage.com/cities?buildingID=95141,NA,NA,NA,"c(""Building Uses"", ""- residential"", ""Structural Types"", ""- highrise"")",1,0,0,0,Residential,Rua Francisca Júlia 277,-23.4937253,-46.6282952
Lumina Noblesse Torre C,28,built,2005,Avenida Sargento Geraldo Santana 660,Sao Paulo SP Brazil,,NA,https://skyscraperpage.com/cities?buildingID=96271,NA,NA,NA,"c(""Building Uses"", ""- residential"", ""Structural Types"", ""- highrise"")",1,0,0,0,Residential,Avenida Sargento Geraldo Santana 660,-23.6636384,-46.691482
Lumina Noblesse Torre B,28,built,2005,Avenida Sargento Geraldo Santana 660,Sao Paulo SP Brazil,,NA,https://skyscraperpage.com/cities?buildingID=96270,NA,NA,NA,"c(""Building Uses"", ""- residential"", ""Structural Types"", ""- highrise"")",1,0,0,0,Residential,Avenida Sargento Geraldo Santana 660,-23.6636384,-46.691482
Lumina Noblesse Torre A,28,built,2004,Avenida Sargento Geraldo Santana 660,Sao Paulo SP Brazil,,NA,https://skyscraperpage.com/cities?buildingID=96269,NA,NA,NA,"c(""Building Uses"", ""- residential"", ""Structural Types"", ""- highrise"")",1,0,0,0,Residential,Avenida Sargento Geraldo Santana 660,-23.6636384,-46.691482
Brasil Pitoresco B,28,built,,Rua Manoel da Nóbrega 1240,Sao Paulo SP Brazil,,NA,https://skyscraperpage.com/cities?buildingID=95128,NA,NA,NA,"c(""Building Uses"", ""- residential"", ""Structural Types"", ""- highrise"")",1,0,0,0,Residential,Rua Manoel da Nóbrega 1240,-25.55544,-49.2656707
West Side,26,built,2006,Rua Peixoto Gomide 596,Sao Paulo SP Brazil,,NA,https://skyscraperpage.com/cities?buildingID=102696,NA,NA,NA,"c(""Building Uses"", ""- residential"", ""Structural Types"", ""- highrise"")",1,0,0,0,Residential,Rua Peixoto Gomide 596,-23.5598857,-46.6560858
East Side,26,built,2006,Rua Peixoto Gomide 596,Sao Paulo SP Brazil,,NA,https://skyscraperpage.com/cities?buildingID=102695,NA,NA,NA,"c(""Building Uses"", ""- residential"", ""Structural Types"", ""- highrise"")",1,0,0,0,Residential,Rua Peixoto Gomide 596,-23.5598857,-46.6560858
Barão De Itatiaia Galeria 2001,24,built,1977,Av. Paulista 2001 Jardim Paulista,Sao Paulo SP Brazil,,NA,https://skyscraperpage.com/cities?buildingID=104877,NA,NA,NA,"c(""Building Uses"", ""- office"", ""- communication"", ""- retail"", ""Structural Types"", ""- highrise"", ""- truss tower"", ""Architectural Style"", ""- modern"", ""Materials"", ""- glass"", ""- steel"", ""- concrete, reinforced"")",0,1,0,0,Office,Av. Paulista 2001 Jardim Paulista,-23.5592481,-46.6592623
Exclusive Perdizes,23,built,2008,"Rua Tucuna, 662",Sao Paulo SP Brazil,,276,https://skyscraperpage.com/cities?buildingID=61446,276,NA,NA,"c(""Building Uses"", ""- residential"", ""Structural Types"", ""- highrise"", ""Architectural Style"", ""- postmodern"", ""Materials"", ""- glass"", ""- steel"", ""- limestone"", ""- aluminium"", ""- concrete, reinforced"", ""- brick"")",1,0,0,0,Residential,"Rua Tucuna, 662",-23.5312227,-46.6829829
Domani Pinheiros,27,built,2003,Rua Isabel de Castela,Sao Paulo SP Brazil,,271,https://skyscraperpage.com/cities?buildingID=10883,271,NA,NA,"c(""Building Uses"", ""- residential"", ""Structural Types"", ""- highrise"", ""Architectural Style"", ""- modern"")",1,0,0,0,Residential,Rua Isabel de Castela,-23.5530719,-46.6983211
Villa Natura Bloco D,27,built,2005,Avenida Washington Luís 1277,Sao Paulo SP Brazil,,NA,https://skyscraperpage.com/cities?buildingID=96195,NA,NA,NA,"c(""Building Uses"", ""- residential"", ""Structural Types"", ""- highrise"")",1,0,0,0,Residential,Avenida Washington Luís 1277,-23.656122,-46.69387
Villa Natura Bloco C,27,built,2005,Avenida Washington Luís 1277,Sao Paulo SP Brazil,,NA,https://skyscraperpage.com/cities?buildingID=96194,NA,NA,NA,"c(""Building Uses"", ""- residential"", ""Structural Types"", ""- highrise"")",1,0,0,0,Residential,Avenida Washington Luís 1277,-23.656122,-46.69387
Villa Natura Bloco B,27,built,2005,Avenida Washington Luís 1277,Sao Paulo SP Brazil,,NA,https://skyscraperpage.com/cities?buildingID=96193,NA,NA,NA,"c(""Building Uses"", ""- residential"", ""Structural Types"", ""- highrise"")",1,0,0,0,Residential,Avenida Washington Luís 1277,-23.656122,-46.69387
Villa Natura Bloco A,27,built,2005,Avenida Washington Luís 1277,Sao Paulo SP Brazil,,NA,https://skyscraperpage.com/cities?buildingID=96192,NA,NA,NA,"c(""Building Uses"", ""- residential"", ""Structural Types"", ""- highrise"")",1,0,0,0,Residential,Avenida Washington Luís 1277,-23.656122,-46.69387
Torre São Paulo,27,built,,Rua Jerônima Dias 247,Sao Paulo SP Brazil,,NA,https://skyscraperpage.com/cities?buildingID=95145,NA,NA,NA,"c(""Building Uses"", ""- residential"", ""Structural Types"", ""- highrise"")",1,0,0,0,Residential,Rua Jerônima Dias 247,-23.4871115,-46.6239422
Ouro Verde,27,built,,Rua Pedro Doll 530,Sao Paulo SP Brazil,,NA,https://skyscraperpage.com/cities?buildingID=95144,NA,NA,NA,"c(""Building Uses"", ""- residential"", ""Structural Types"", ""- highrise"")",1,0,0,0,Residential,Rua Pedro Doll 530,-23.49073005,-46.63077926224806
Bios Santana,27,built,2007,Rua Antônio Pereira de Sousa 425,Sao Paulo SP Brazil,,NA,https://skyscraperpage.com/cities?buildingID=95142,NA,NA,NA,"c(""Building Uses"", ""- residential"", ""Structural Types"", ""- highrise"")",1,0,0,0,Residential,Rua Antônio Pereira de Sousa 425,-6.9261307,-39.5702741
Astoria,27,built,1990,Rua Pedro Doll 333,Sao Paulo SP Brazil,,NA,https://skyscraperpage.com/cities?buildingID=95143,NA,NA,NA,"c(""Building Uses"", ""- residential"", ""Structural Types"", ""- highrise"")",1,0,0,0,Residential,Rua Pedro Doll 333,-23.4915642,-46.6293386
Victoria Park,22,built,,"Pedro Alvares Cabral,1088",Sao Paulo SP Brazil,,NA,https://skyscraperpage.com/cities?buildingID=11066,NA,NA,NA,"c(""Building Uses"", ""- residential"", ""Structural Types"", ""- highrise"", ""Architectural Style"", ""- modern"")",1,0,0,0,Residential,"Pedro Alvares Cabral,1088",-5.1889955,-37.3603803
Conjunto Yervant Kissajikian,33,built,1981,Rua Zavuvus 5,Sao Paulo SP Brazil,,NA,https://skyscraperpage.com/cities?buildingID=10990,NA,NA,NA,"c(""Structural Types"", ""- highrise"")",0,0,0,1,Other,Rua Zavuvus 5,-23.6742524,-46.6661098
Tivoli Sao Paulo Mofarrej,23,built,,Alameda Santos 1437 - Cerqueira César,Sao Paulo SP Brazil,http://www.tivolihotels.com/en...,NA,https://skyscraperpage.com/cities?buildingID=108672,NA,NA,NA,"c(""Building Uses"", ""- hotel"", ""- parking garage"", ""- restaurant"", ""Structural Types"", ""- highrise"", ""- landing pad"", ""Architectural Style"", ""- modern"", ""Materials"", ""- glass"", ""- steel"", ""- aluminium"", ""- granite"", ""- concrete, reinforced"", ""- fabric"")",0,0,1,0,Hotel,Alameda Santos 1437 - Cerqueira César,-23.5564966,-46.664041
Edifício Véranda,23,built,2007,Rua Vanderlei 1223 Perdizes,Sao Paulo SP Brazil,,NA,https://skyscraperpage.com/cities?buildingID=59713,NA,NA,NA,"c(""Building Uses"", ""- residential"", ""Structural Types"", ""- highrise"", ""Architectural Style"", ""- postmodern"", ""Materials"", ""- glass"", ""- granite"", ""- concrete, reinforced"", ""- brick"")",1,0,0,0,Residential,Rua Vanderlei 1223 Perdizes,-23.5359936,-46.6811477
Edifício Espace,23,built,2006,Rua Fábia 404 Vila Romana,Sao Paulo SP Brazil,,NA,https://skyscraperpage.com/cities?buildingID=59380,NA,NA,NA,"c(""Building Uses"", ""- residential"", ""Structural Types"", ""- highrise"", ""Architectural Style"", ""- postmodern"", ""Materials"", ""- glass"", ""- granite"", ""- brick"", ""- concrete"")",1,0,0,0,Residential,Rua Fábia 404 Vila Romana,-23.527091,-46.6990933
Edificio Comendador Alberto Bonfiglioli,20,built,2001,"Avenida Paulista, 1048 - Bela Vista",Sao Paulo SP Brazil,,264,https://skyscraperpage.com/cities?buildingID=11078,264,NA,NA,"c(""Building Uses"", ""- office"", ""Structural Types"", ""- highrise"", ""- landing pad"", ""Architectural Style"", ""- modern"", ""Materials"", ""- glass"")",0,1,0,0,Office,"Avenida Paulista, 1048 - Bela Vista",-23.564459749999997,-46.652188401214644
NYC Berrini,26,built,2009,"Sansão Alves dos Santos, 56",Sao Paulo SP Brazil,,NA,https://skyscraperpage.com/cities?buildingID=95225,NA,NA,NA,"c(""Building Uses"", ""- residential"", ""Structural Types"", ""- highrise"", ""Architectural Style"", ""- postmodern"")",1,0,0,0,Residential,"Sansão Alves dos Santos, 56",-23.6044702,-46.694538
Espaço Terral,26,built,2007,Avenida Dona Helena Pereira de Moraes 415,Sao Paulo SP Brazil,,NA,https://skyscraperpage.com/cities?buildingID=95122,NA,NA,NA,"c(""Building Uses"", ""- residential"", ""Structural Types"", ""- highrise"")",1,0,0,0,Residential,Avenida Dona Helena Pereira de Moraes 415,-23.634686,-46.7251885
Espaço Mistral,26,built,2007,Avenida Dona Helena Pereira de Moraes 415,Sao Paulo SP Brazil,,NA,https://skyscraperpage.com/cities?buildingID=95123,NA,NA,NA,"c(""Building Uses"", ""- residential"", ""Structural Types"", ""- highrise"")",1,0,0,0,Residential,Avenida Dona Helena Pereira de Moraes 415,-23.634686,-46.7251885
Espaço Brisa,26,built,2007,Avenida Dona Helena Pereira de Moraes 415,Sao Paulo SP Brazil,,NA,https://skyscraperpage.com/cities?buildingID=95121,NA,NA,NA,"c(""Building Uses"", ""- residential"", ""Structural Types"", ""- highrise"")",1,0,0,0,Residential,Avenida Dona Helena Pereira de Moraes 415,-23.634686,-46.7251885
Transamerica Flat Higienópolis,25,built,,Rua Alagoas 974,Sao Paulo SP Brazil,,NA,https://skyscraperpage.com/cities?buildingID=95824,NA,NA,NA,"c(""Building Uses"", ""- residential"", ""Structural Types"", ""- highrise"")",1,0,0,0,Residential,Rua Alagoas 974,-9.8848953,-36.8249761
Piazza della Fontana,25,built,,Rua Diogo Vaz 370,Sao Paulo SP Brazil,,NA,https://skyscraperpage.com/cities?buildingID=96477,NA,NA,NA,"c(""Building Uses"", ""- residential"", ""Structural Types"", ""- highrise"")",1,0,0,0,Residential,Rua Diogo Vaz 370,-23.5626878,-46.6281639
Marrion Luxury Edition,25,built,2008,Rua Caiubi 489,Sao Paulo SP Brazil,,NA,https://skyscraperpage.com/cities?buildingID=95812,NA,NA,NA,"c(""Building Uses"", ""- residential"", ""Structural Types"", ""- highrise"")",1,0,0,0,Residential,Rua Caiubi 489,-23.5385706,-46.6745338
Mansão Charlie Parker,25,built,,Rua Apinajés 761,Sao Paulo SP Brazil,,NA,https://skyscraperpage.com/cities?buildingID=95811,NA,NA,NA,"c(""Building Uses"", ""- residential"", ""Structural Types"", ""- highrise"")",1,0,0,0,Residential,Rua Apinajés 761,-23.545595,-46.6859993
Lumière,25,built,2007,Rua Coronel Melo de Oliveira 915,Sao Paulo SP Brazil,,NA,https://skyscraperpage.com/cities?buildingID=95813,NA,NA,NA,"c(""Building Uses"", ""- residential"", ""Structural Types"", ""- highrise"")",1,0,0,0,Residential,Rua Coronel Melo de Oliveira 915,-23.5325098,-46.6866949
Estacionamento Shopping 25 de Março,25,built,,Avenida Prestes Maia,Sao Paulo SP Brazil,,NA,https://skyscraperpage.com/cities?buildingID=96401,NA,NA,NA,"c(""Building Uses"", ""- mixed use"", ""Structural Types"", ""- highrise"")",0,0,0,1,Other,Avenida Prestes Maia,-23.5361824,-46.6336745
Paradiso,24,built,2000,Rua Voluntários da Pátria 4280,Sao Paulo SP Brazil,,NA,https://skyscraperpage.com/cities?buildingID=95139,NA,NA,NA,"c(""Building Uses"", ""- residential"", ""Structural Types"", ""- highrise"")",1,0,0,0,Residential,Rua Voluntários da Pátria 4280,-23.4840472,-46.6306505
Paradiso,24,built,2000,"Rua Pará, 391",Sao Paulo SP Brazil,,NA,https://skyscraperpage.com/cities?buildingID=95827,NA,NA,NA,"c(""Building Uses"", ""- residential"", ""Structural Types"", ""- highrise"")",1,0,0,0,Residential,"Rua Pará, 391",-1.3738759,-48.4295841
Delta Plaza,22,built,1992,Rua Cincinato Braga 340/348,Sao Paulo SP Brazil,,262,https://skyscraperpage.com/cities?buildingID=63611,262,NA,NA,"c(""Building Uses"", ""- office"", ""- parking garage"", ""Structural Types"", ""- highrise"", ""- landing pad"", ""Architectural Style"", ""- modern"")",0,1,0,0,Office,Rua Cincinato Braga 340/348,-23.5683035,-46.6461137
Palácio Mauá,21,built,1952,Viaduto Dona Paulina 80,Sao Paulo SP Brazil,,NA,https://skyscraperpage.com/cities?buildingID=96422,NA,NA,NA,"c(""Building Uses"", ""- courthouse"", ""Structural Types"", ""- highrise"")",0,0,0,1,Other,Viaduto Dona Paulina 80,-23.5519679,-46.6361578
Azevedo e Villares,21,built,1943,Largo do Tesouro,Sao Paulo SP Brazil,,NA,https://skyscraperpage.com/cities?buildingID=96423,NA,NA,NA,"c(""Building Uses"", ""- office"", ""Structural Types"", ""- highrise"", ""Architectural Style"", ""- art deco"")",0,1,0,0,Office,Largo do Tesouro,-16.3508759,-48.9064475
RochaVerá Plaza Torre B,18,built,2008,"Avenida das Nações Unidas, 14171 - Santo Amaro",Sao Paulo SP Brazil,,262,https://skyscraperpage.com/cities?buildingID=64358,262,NA,NA,"c(""Building Uses"", ""- office"", ""Structural Types"", ""- highrise"", ""Architectural Style"", ""- postmodern"", ""Materials"", ""- glass"", ""- steel"", ""- aluminium"", ""- carbon-fibre"", ""- granite"", ""- concrete, reinforced"")",0,1,0,0,Office,"Avenida das Nações Unidas, 14171 - Santo Amaro",-23.6229744,-46.7012293
RochaVerá Plaza Torre A,16,built,2008,"Avenida das Nações Unidas, 14171 - Santo Amaro",Sao Paulo SP Brazil,,262,https://skyscraperpage.com/cities?buildingID=64359,262,NA,NA,"c(""Building Uses"", ""- office"", ""Structural Types"", ""- highrise"", ""Architectural Style"", ""- modern"")",0,1,0,0,Office,"Avenida das Nações Unidas, 14171 - Santo Amaro",-23.6229744,-46.7012293
Edifício Grande Avenida,22,built,1966,"Av. Paulista 1754, Bela Vista BR-01310-920 Zona Sul",Sao Paulo SP Brazil,,262,https://skyscraperpage.com/cities?buildingID=10925,262,NA,NA,"c(""Building Uses"", ""- office"", ""- communication"", ""Structural Types"", ""- highrise"", ""- truss tower"", ""Architectural Style"", ""- modern"", ""Materials"", ""- glass"", ""- steel"", ""- concrete, reinforced"", ""- concrete"")",0,1,0,0,Office,"Av. Paulista 1754, Bela Vista ",-23.5602323,-46.6574811
Terra Brasilis,20,built,1997,Rua André Ampère 153,Sao Paulo SP Brazil,,262,https://skyscraperpage.com/cities?buildingID=11057,262,NA,NA,"c(""Building Uses"", ""- office"", ""Structural Types"", ""- highrise"")",0,1,0,0,Office,Rua André Ampère 153,-23.610032,-46.6932213
Terra Brasilis,20,built,1997,Rua Sócrates 335,Sao Paulo SP Brazil,,NA,https://skyscraperpage.com/cities?buildingID=96281,NA,NA,NA,"c(""Building Uses"", ""- residential"", ""Structural Types"", ""- highrise"")",1,0,0,0,Residential,Rua Sócrates 335,-23.6573641,-46.6914225
Bolsa de Imóveis de São Paulo,20,built,1996,Av. Naçoes Unidas,Sao Paulo SP Brazil,,262,https://skyscraperpage.com/cities?buildingID=10947,262,NA,NA,"c(""Structural Types"", ""- highrise"")",0,0,0,1,Other,Av. Naçoes Unidas,-23.6204337,-46.7006208
Edifício Sede Sudameris,17,built,1986,"Avenida Paulista, 1000 - Bela Vista",Sao Paulo SP Brazil,,262,https://skyscraperpage.com/cities?buildingID=10928,262,NA,NA,"c(""Building Uses"", ""- office"", ""Structural Types"", ""- highrise"", ""Architectural Style"", ""- modern"")",0,1,0,0,Office,"Avenida Paulista, 1000 - Bela Vista",-23.5649267,-46.6519566
Parque Cultural Paulista,21,built,1990,"Avenida Paulista, 37 - Paraíso",Sao Paulo SP Brazil,,NA,https://skyscraperpage.com/cities?buildingID=63625,NA,NA,NA,"c(""Building Uses"", ""- office"", ""- parking garage"", ""Structural Types"", ""- highrise"", ""Architectural Style"", ""- modern"", ""Materials"", ""- glass"")",0,1,0,0,Office,"Avenida Paulista, 37 - Paraíso",-23.571099,-46.64517477009933
Vivere,26,built,2006,Rua Professor Dorival Dias Minhoto 333,Sao Paulo SP Brazil,,NA,https://skyscraperpage.com/cities?buildingID=95151,NA,NA,NA,"c(""Building Uses"", ""- residential"", ""Structural Types"", ""- highrise"")",1,0,0,0,Residential,Rua Professor Dorival Dias Minhoto 333,-23.4800405,-46.6443644
Torre Cantareira,26,built,,Rua Jerônima Dias 247,Sao Paulo SP Brazil,,NA,https://skyscraperpage.com/cities?buildingID=95146,NA,NA,NA,"c(""Building Uses"", ""- residential"", ""Structural Types"", ""- highrise"")",1,0,0,0,Residential,Rua Jerônima Dias 247,-23.4871115,-46.6239422
Scott Joplin,26,built,,Rua Capitão Otávio Machado 1018,Sao Paulo SP Brazil,,NA,https://skyscraperpage.com/cities?buildingID=96185,NA,NA,NA,"c(""Building Uses"", ""- residential"", ""Structural Types"", ""- highrise"")",1,0,0,0,Residential,Rua Capitão Otávio Machado 1018,-23.6362124,-46.6989226
Qualitá,26,built,,Avenida Raimundo Pereira de Magalhães 1652,Sao Paulo SP Brazil,,NA,https://skyscraperpage.com/cities?buildingID=95157,NA,NA,NA,"c(""Building Uses"", ""- residential"", ""Structural Types"", ""- highrise"")",1,0,0,0,Residential,Avenida Raimundo Pereira de Magalhães 1652,-23.5059949,-46.7174922
Prosperitá,26,built,,Avenida Raimundo Pereira de Magalhães 1652,Sao Paulo SP Brazil,,NA,https://skyscraperpage.com/cities?buildingID=95156,NA,NA,NA,"c(""Building Uses"", ""- residential"", ""Structural Types"", ""- highrise"")",1,0,0,0,Residential,Avenida Raimundo Pereira de Magalhães 1652,-23.5059949,-46.7174922
Mundo Apto Santana,26,built,2007,Rua José Debieux 282,Sao Paulo SP Brazil,,NA,https://skyscraperpage.com/cities?buildingID=95147,NA,NA,NA,"c(""Building Uses"", ""- residential"", ""Structural Types"", ""- highrise"")",1,0,0,0,Residential,Rua José Debieux 282,-23.4945267,-46.6246099
Modernitá,26,built,,Avenida Raimundo Pereira de Magalhães 1652,Sao Paulo SP Brazil,,NA,https://skyscraperpage.com/cities?buildingID=95155,NA,NA,NA,"c(""Building Uses"", ""- residential"", ""Structural Types"", ""- highrise"")",1,0,0,0,Residential,Avenida Raimundo Pereira de Magalhães 1652,-23.5059949,-46.7174922
MO.R.E,26,built,2009,Rua Sócrates 193,Sao Paulo SP Brazil,,NA,https://skyscraperpage.com/cities?buildingID=96286,NA,NA,NA,"c(""Building Uses"", ""- residential"", ""Structural Types"", ""- highrise"")",1,0,0,0,Residential,Rua Sócrates 193,-23.6563076,-46.691393
Manacá,26,built,2005,Rua Borba Gato 331,Sao Paulo SP Brazil,,NA,https://skyscraperpage.com/cities?buildingID=96201,NA,NA,NA,"c(""Building Uses"", ""- residential"", ""Structural Types"", ""- highrise"")",1,0,0,0,Residential,Rua Borba Gato 331,-23.6568592,-46.6996914
Libertá,26,built,,Avenida Raimundo Pereira de Magalhães 1652,Sao Paulo SP Brazil,,NA,https://skyscraperpage.com/cities?buildingID=95154,NA,NA,NA,"c(""Building Uses"", ""- residential"", ""Structural Types"", ""- highrise"")",1,0,0,0,Residential,Avenida Raimundo Pereira de Magalhães 1652,-23.5059949,-46.7174922
Felicitá,26,built,,Avenida Raimundo Pereira de Magalhães 1652,Sao Paulo SP Brazil,,NA,https://skyscraperpage.com/cities?buildingID=95153,NA,NA,NA,"c(""Building Uses"", ""- residential"", ""Structural Types"", ""- highrise"")",1,0,0,0,Residential,Avenida Raimundo Pereira de Magalhães 1652,-23.5059949,-46.7174922
Felice,26,built,2006,Rua Professor Dorival Dias Minhoto 333,Sao Paulo SP Brazil,,NA,https://skyscraperpage.com/cities?buildingID=95150,NA,NA,NA,"c(""Building Uses"", ""- residential"", ""Structural Types"", ""- highrise"")",1,0,0,0,Residential,Rua Professor Dorival Dias Minhoto 333,-23.4800405,-46.6443644
Eternitá,26,built,,Avenida Raimundo Pereira de Magalhães 1652,Sao Paulo SP Brazil,,NA,https://skyscraperpage.com/cities?buildingID=95152,NA,NA,NA,"c(""Building Uses"", ""- residential"", ""Structural Types"", ""- highrise"")",1,0,0,0,Residential,Avenida Raimundo Pereira de Magalhães 1652,-23.5059949,-46.7174922
Esperanza,26,built,2008,Rua Professor Dorival Dias Minhoto 333,Sao Paulo SP Brazil,,NA,https://skyscraperpage.com/cities?buildingID=95148,NA,NA,NA,"c(""Building Uses"", ""- residential"", ""Structural Types"", ""- highrise"")",1,0,0,0,Residential,Rua Professor Dorival Dias Minhoto 333,-23.4800405,-46.6443644
Cristal,26,built,2006,Rua Professor Dorival Dias Minhoto 333,Sao Paulo SP Brazil,,NA,https://skyscraperpage.com/cities?buildingID=95149,NA,NA,NA,"c(""Building Uses"", ""- residential"", ""Structural Types"", ""- highrise"")",1,0,0,0,Residential,Rua Professor Dorival Dias Minhoto 333,-23.4800405,-46.6443644
Edifício Paysage,22,built,2006,Rua Fábia 404 Vila Romana,Sao Paulo SP Brazil,,NA,https://skyscraperpage.com/cities?buildingID=59378,NA,NA,NA,"c(""Building Uses"", ""- residential"", ""Structural Types"", ""- highrise"", ""Architectural Style"", ""- postmodern"", ""Materials"", ""- glass"", ""- granite"", ""- brick"", ""- concrete"")",1,0,0,0,Residential,Rua Fábia 404 Vila Romana,-23.527091,-46.6990933
Edifício Largo do Ouvidor,22,built,1980,"Barao de Capanema, 538 - Jardim Paulista",Sao Paulo SP Brazil,,NA,https://skyscraperpage.com/cities?buildingID=11063,NA,NA,NA,"c(""Building Uses"", ""- residential"", ""Structural Types"", ""- highrise"", ""Architectural Style"", ""- postmodern"")",1,0,0,0,Residential,"Barao de Capanema, 538 - Jardim Paulista",-23.5676241,-46.6658028
Centro Empresarial Água Branca - Torino,22,built,2002,"Av. Francisco Matarazzo, 1500",Sao Paulo SP Brazil,,NA,https://skyscraperpage.com/cities?buildingID=104913,NA,NA,NA,"c(""Building Uses"", ""- office"", ""Structural Types"", ""- highrise"", ""- landing pad"", ""Architectural Style"", ""- modern"", ""Materials"", ""- glass"", ""- concrete, reinforced"")",0,1,0,0,Office,"Av. Francisco Matarazzo, 1500",-23.5258165,-46.6769722
Centro Empresarial Água Branca - Nova York,22,built,2002,"Av. Francisco Matarazzo, 1500",Sao Paulo SP Brazil,,NA,https://skyscraperpage.com/cities?buildingID=104914,NA,NA,NA,"c(""Building Uses"", ""- office"", ""Structural Types"", ""- highrise"", ""- landing pad"", ""Architectural Style"", ""- modern"", ""Materials"", ""- glass"", ""- concrete, reinforced"")",0,1,0,0,Office,"Av. Francisco Matarazzo, 1500",-23.5258165,-46.6769722
Centro Empresarial Água Branca - Milano,22,built,2000,"Av. Francisco Matarazzo, 1500",Sao Paulo SP Brazil,,NA,https://skyscraperpage.com/cities?buildingID=104911,NA,NA,NA,"c(""Building Uses"", ""- office"", ""Structural Types"", ""- highrise"", ""- landing pad"", ""Architectural Style"", ""- modern"", ""Materials"", ""- glass"", ""- concrete, reinforced"")",0,1,0,0,Office,"Av. Francisco Matarazzo, 1500",-23.5258165,-46.6769722
Centro Empresarial Água Branca - Los Angeles,22,built,2000,"Av. Francisco Matarazzo, 1500",Sao Paulo SP Brazil,,NA,https://skyscraperpage.com/cities?buildingID=104912,NA,NA,NA,"c(""Building Uses"", ""- office"", ""Structural Types"", ""- highrise"", ""- landing pad"", ""Architectural Style"", ""- modern"", ""Materials"", ""- glass"", ""- concrete, reinforced"")",0,1,0,0,Office,"Av. Francisco Matarazzo, 1500",-23.5258165,-46.6769722
Verso,25,built,2009,Rua Laguna 630,Sao Paulo SP Brazil,,NA,https://skyscraperpage.com/cities?buildingID=96177,NA,NA,NA,"c(""Building Uses"", ""- residential"", ""Structural Types"", ""- highrise"")",1,0,0,0,Residential,Rua Laguna 630,-23.6416792,-46.715957
Terra Brasilis,25,built,2007,Rua André Ampère 153,Sao Paulo SP Brazil,,262,https://skyscraperpage.com/cities?buildingID=11057,262,NA,NA,"c(""Building Uses"", ""- office"", ""Structural Types"", ""- highrise"")",0,1,0,0,Office,Rua André Ampère 153,-23.610032,-46.6932213
Terra Brasilis,25,built,2007,Rua Sócrates 335,Sao Paulo SP Brazil,,NA,https://skyscraperpage.com/cities?buildingID=96281,NA,NA,NA,"c(""Building Uses"", ""- residential"", ""Structural Types"", ""- highrise"")",1,0,0,0,Residential,Rua Sócrates 335,-23.6573641,-46.6914225
Rima,25,built,2009,Rua Laguna 630,Sao Paulo SP Brazil,,NA,https://skyscraperpage.com/cities?buildingID=96176,NA,NA,NA,"c(""Building Uses"", ""- residential"", ""Structural Types"", ""- highrise"")",1,0,0,0,Residential,Rua Laguna 630,-23.6416792,-46.715957
Regente Feijó A,25,built,,Praça da Liberdade 107,Sao Paulo SP Brazil,,NA,https://skyscraperpage.com/cities?buildingID=96403,NA,NA,NA,"c(""Building Uses"", ""- residential"", ""Structural Types"", ""- highrise"")",1,0,0,0,Residential,Praça da Liberdade 107,-23.5549012,-46.6352556
Prosa,25,built,2009,Rua Laguna 630,Sao Paulo SP Brazil,,NA,https://skyscraperpage.com/cities?buildingID=96175,NA,NA,NA,"c(""Building Uses"", ""- residential"", ""Structural Types"", ""- highrise"")",1,0,0,0,Residential,Rua Laguna 630,-23.6416792,-46.715957
Laranjeiras,25,built,2003,Rua Borba Gato 331,Sao Paulo SP Brazil,,NA,https://skyscraperpage.com/cities?buildingID=96204,NA,NA,NA,"c(""Building Uses"", ""- residential"", ""Structural Types"", ""- highrise"")",1,0,0,0,Residential,Rua Borba Gato 331,-23.6568592,-46.6996914
Gardenia,25,built,2005,Rua Borba Gato 331,Sao Paulo SP Brazil,,NA,https://skyscraperpage.com/cities?buildingID=96203,NA,NA,NA,"c(""Building Uses"", ""- residential"", ""Structural Types"", ""- highrise"")",1,0,0,0,Residential,Rua Borba Gato 331,-23.6568592,-46.6996914
Conto,25,built,2009,Rua Laguna 630,Sao Paulo SP Brazil,,NA,https://skyscraperpage.com/cities?buildingID=96174,NA,NA,NA,"c(""Building Uses"", ""- residential"", ""Structural Types"", ""- highrise"")",1,0,0,0,Residential,Rua Laguna 630,-23.6416792,-46.715957
Cennario,25,built,2008,Rua Visconde de Taunay 507,Sao Paulo SP Brazil,,NA,https://skyscraperpage.com/cities?buildingID=96198,NA,NA,NA,"c(""Building Uses"", ""- residential"", ""Structural Types"", ""- highrise"")",1,0,0,0,Residential,Rua Visconde de Taunay 507,-22.9066186,-43.2852353
Amarylis,25,built,2005,Rua Borba Gato 331,Sao Paulo SP Brazil,,NA,https://skyscraperpage.com/cities?buildingID=96202,NA,NA,NA,"c(""Building Uses"", ""- residential"", ""Structural Types"", ""- highrise"")",1,0,0,0,Residential,Rua Borba Gato 331,-23.6568592,-46.6996914
Le Crillon,23,built,2006,Rua Peixoto Gomide 502,Sao Paulo SP Brazil,,NA,https://skyscraperpage.com/cities?buildingID=102698,NA,NA,NA,"c(""Building Uses"", ""- residential"", ""Structural Types"", ""- highrise"")",1,0,0,0,Residential,Rua Peixoto Gomide 502,-23.5598857,-46.6560858
Itamarati,23,built,1993,"Rua Martinico Prado, 26",Sao Paulo SP Brazil,,NA,https://skyscraperpage.com/cities?buildingID=95831,NA,NA,NA,"c(""Building Uses"", ""- office"", ""Structural Types"", ""- highrise"")",0,1,0,0,Office,"Rua Martinico Prado, 26",-23.5426322,-46.651494
Grand Hotel Ca'd'Oro,23,built,,Rua Augusta 129,Sao Paulo SP Brazil,,NA,https://skyscraperpage.com/cities?buildingID=95826,NA,NA,NA,"c(""Building Uses"", ""- hotel"", ""Structural Types"", ""- highrise"")",0,0,1,0,Hotel,Rua Augusta 129,-23.550579550000002,-46.647272803082195
Authentique Higienópolis,23,built,2006,Rua Maranhão 391,Sao Paulo SP Brazil,,NA,https://skyscraperpage.com/cities?buildingID=95830,NA,NA,NA,"c(""Building Uses"", ""- residential"", ""Structural Types"", ""- highrise"")",1,0,0,0,Residential,Rua Maranhão 391,-2.52945,-44.231334
Sebrae Tower,22,built,,Rua Vergueiro 1117 - Vergueiro - Zona Sul,Sao Paulo SP Brazil,,246,https://skyscraperpage.com/cities?buildingID=10912,246,NA,NA,"c(""Building Uses"", ""- office"", ""Structural Types"", ""- highrise"", ""Architectural Style"", ""- modern"", ""Materials"", ""- glass"", ""- aluminium"", ""- concrete"")",0,1,0,0,Office,Rua Vergueiro 1117 - Vergueiro - Zona Sul,-22.9346827,-43.1751649
Pátio Victor Malzoni,21,built,2011,Avenida Brigadeiro Faria Lima,Sao Paulo SP Brazil,,NA,https://skyscraperpage.com/cities?buildingID=14786,NA,NA,NA,"c(""Building Uses"", ""- office"", ""Structural Types"", ""- highrise"", ""- hole"")",0,1,0,0,Office,Avenida Brigadeiro Faria Lima,-23.5695569,-46.6915665
Paulista Plaza,20,built,2005,"Rua do Paraíso, 148 G",Sao Paulo SP Brazil,,NA,https://skyscraperpage.com/cities?buildingID=63626,NA,NA,NA,"c(""Building Uses"", ""- office"", ""- parking garage"", ""Structural Types"", ""- highrise"", ""Architectural Style"", ""- postmodern"")",0,1,0,0,Office,"Rua do Paraíso, 148 G",-2.8588585,-44.037537
La Tour,23,built,,Rua Rio Grande 574,Sao Paulo SP Brazil,,239,https://skyscraperpage.com/cities?buildingID=11068,239,NA,NA,"c(""Building Uses"", ""- residential"", ""Structural Types"", ""- highrise"")",1,0,0,0,Residential,Rua Rio Grande 574,-23.5894257,-46.6419191
Vivre Torre B,24,built,2010,Rua Doutor Antônio Bento 504,Sao Paulo SP Brazil,,NA,https://skyscraperpage.com/cities?buildingID=96183,NA,NA,NA,"c(""Building Uses"", ""- residential"", ""Structural Types"", ""- highrise"")",1,0,0,0,Residential,Rua Doutor Antônio Bento 504,-23.6453305,-46.7021678
Ritz Vila Nova Bloco B,24,built,2008,Rua Jacques Félix 450,Sao Paulo SP Brazil,,NA,https://skyscraperpage.com/cities?buildingID=95134,NA,NA,NA,"c(""Building Uses"", ""- residential"", ""Structural Types"", ""- highrise"")",1,0,0,0,Residential,Rua Jacques Félix 450,-23.592807,-46.6715108
Ritz Vila Nova Bloco A,24,built,2008,Rua Jacques Félix 450,Sao Paulo SP Brazil,,NA,https://skyscraperpage.com/cities?buildingID=95133,NA,NA,NA,"c(""Building Uses"", ""- residential"", ""Structural Types"", ""- highrise"")",1,0,0,0,Residential,Rua Jacques Félix 450,-23.592807,-46.6715108
Primavera,24,built,2004,Rua Borba Gato 331,Sao Paulo SP Brazil,,NA,https://skyscraperpage.com/cities?buildingID=96207,NA,NA,NA,"c(""Building Uses"", ""- residential"", ""Structural Types"", ""- highrise"")",1,0,0,0,Residential,Rua Borba Gato 331,-23.6568592,-46.6996914
Palais des Sports Bloco B,24,built,1998,Rua Doutor José Aureo Bustamante 183,Sao Paulo SP Brazil,,NA,https://skyscraperpage.com/cities?buildingID=96191,NA,NA,NA,"c(""Building Uses"", ""- residential"", ""Structural Types"", ""- highrise"")",1,0,0,0,Residential,Rua Doutor José Aureo Bustamante 183,-23.6236905,-46.6973045
